feed_label,stop_id,stop_name,stop_lat,stop_lon,weekday_analysis_date,weekday_total_trips,weekday_routes_serving_stop,weekday_peak_trips_per_hour,weekday_span_hours,weekday_first_departure_time,weekday_last_departure_time,weekend_analysis_date,weekend_total_trips,weekend_span_hours
2026_may_current,3722,LAKEFOREST TRANSIT CENTER & ODENDHAL AVE,39.152837,-77.199007,2026-05-05,607,7,38.5,21.417,04:30:00,25:55:00,2026-05-09,459.0,19.967
2026_may_current,15182,GERMANTOWN TRANSIT CENTER & BAY B,39.183001,-77.261095,2026-05-05,569,7,34.5,21.433,04:15:00,25:41:00,2026-05-09,402.0,20.767
2026_may_current,15324,S CAMPUS DR & CAMPUS DR,39.096382,-77.158109,2026-05-05,403,3,26.0,21.033,04:55:00,25:57:00,2026-05-09,314.0,20.117
2026_may_current,30266,TRAVILLE TRANSIT CENTER & BAY C,39.092924,-77.202332,2026-05-05,269,2,20.0,17.133,05:10:00,22:18:00,2026-05-09,116.0,16.2
2026_may_current,6008,SHADY GROVE STATION & BAY E,39.120563,-77.163666,2026-05-05,268,2,17.25,19.467,04:52:00,24:20:00,2026-05-09,132.0,16.117
2026_may_current,1094,COLESVILLE RD & FENTON ST,38.997315,-77.027143,2026-05-05,234,9,15.75,19.953,04:46:48,24:43:58,2026-05-09,160.0,19.013
2026_may_current,4644,ODENDHAL AVE & RUSSELL AVE,39.150853,-77.203111,2026-05-05,232,5,14.0,21.219,04:40:27,25:53:35,2026-05-09,179.0,19.218
2026_may_current,4648,ODENDHAL AVE & RUSSELL AVE,39.151504,-77.202001,2026-05-05,232,5,13.5,20.398,04:30:51,24:54:42,2026-05-09,178.0,19.284
2026_may_current,3324,HUNGERFORD DR & FREDERICK AVE,39.094031,-77.153179,2026-05-05,231,4,15.5,20.76,05:08:41,25:54:16,2026-05-09,177.0,19.053
2026_may_current,3326,HUNGERFORD DR & FREDERICK AVE,39.094349,-77.153506,2026-05-05,229,4,15.25,19.95,04:57:26,24:54:25,2026-05-09,175.0,19.95
2026_may_current,6012,SHADY GROVE STATION & BAY L,39.119838,-77.16497,2026-05-05,227,2,18.75,20.133,04:53:00,25:01:00,2026-05-09,117.0,19.4
2026_may_current,6800,VEIRS MILL RD & ENNALLS AVE,39.039709,-77.054637,2026-05-05,224,5,14.25,21.467,04:29:46,25:57:46,2026-05-09,165.0,20.95
2026_may_current,6844,VEIRS MILL RD & UNIVERSITY W BLVD,39.03968,-77.055133,2026-05-05,218,5,14.0,20.836,05:20:48,26:10:57,2026-05-09,151.0,20.346
2026_may_current,17587,TAKOMA-LANGLEY TRANSIT CENTER & BAY F,38.990095,-76.988292,2026-05-05,210,2,11.75,21.367,04:20:00,25:42:00,2026-05-09,159.0,21.383
2026_may_current,14677,GEORGIA AVE & ELLSWORTH DR,38.995167,-77.027014,2026-05-05,208,6,13.5,20.183,05:01:57,25:12:56,2026-05-09,165.0,19.516
2026_may_current,5036,POWDER MILL RD & NEW HAMPSHIRE AVE,39.021931,-76.9779,2026-05-05,207,4,14.75,20.6,04:30:00,25:06:00,2026-05-09,110.0,20.15
2026_may_current,5660,ROCKVILLE STATION & BAY E,39.084619,-77.146918,2026-05-05,207,3,14.25,19.15,05:10:00,24:19:00,2026-05-09,106.0,15.967
2026_may_current,4906,PINEY BRANCH RD & ARLISS ST,38.998276,-77.001442,2026-05-05,206,5,14.0,20.75,04:50:25,25:35:25,2026-05-09,159.0,20.284
2026_may_current,4910,PINEY BRANCH RD & BARRON ST,38.998949,-76.997534,2026-05-05,206,5,14.0,20.75,04:51:31,25:36:31,2026-05-09,159.0,20.287
2026_may_current,4904,PINEY BRANCH RD & FLOWER AVE,38.99824,-77.002984,2026-05-05,206,5,14.0,20.75,04:50:00,25:35:00,2026-05-09,159.0,20.283
2026_may_current,4908,PINEY BRANCH RD & GARLAND AVE,38.998471,-76.999612,2026-05-05,206,5,14.0,20.75,04:50:55,25:35:55,2026-05-09,159.0,20.285
2026_may_current,9182,GLENMONT STATION & BAY C,39.062422,-77.052514,2026-05-05,204,7,17.75,20.017,05:28:00,25:29:00,2026-05-09,88.0,19.95
2026_may_current,10055,PINEY BRANCH RD & ARLISS ST,38.998545,-77.000799,2026-05-05,203,5,13.75,20.75,04:26:01,25:11:01,2026-05-09,161.0,20.833
2026_may_current,4932,PINEY BRANCH RD & BARRON ST,38.999307,-76.997056,2026-05-05,203,5,13.75,20.75,04:24:56,25:09:56,2026-05-09,161.0,20.833
2026_may_current,4938,PINEY BRANCH RD & FLOWER AVE,38.998188,-77.004052,2026-05-05,203,5,13.75,20.75,04:27:00,25:12:00,2026-05-09,161.0,20.833
2026_may_current,4934,PINEY BRANCH RD & GARLAND AVE,38.998789,-76.999079,2026-05-05,203,5,13.75,20.75,04:25:32,25:10:32,2026-05-09,161.0,20.833
2026_may_current,4936,PINEY BRANCH RD & GREENWOOD AVE,38.998424,-77.002807,2026-05-05,203,5,13.5,20.75,04:26:34,25:11:34,2026-05-09,161.0,20.833
2026_may_current,4940,PINEY BRANCH RD & MANCHESTER RD,38.99721,-77.005031,2026-05-05,203,5,13.75,20.75,04:27:21,25:12:21,2026-05-09,161.0,20.834
2026_may_current,4930,PINEY BRANCH RD & UNIVERSITY BLVD,38.99954,-76.996178,2026-05-05,203,5,13.75,20.75,04:24:41,25:09:41,2026-05-09,161.0,20.833
2026_may_current,4148,MONROE ST & MONROE PL,39.083344,-77.148877,2026-05-05,199,6,13.5,19.652,05:03:45,24:42:52,2026-05-09,120.0,18.819
2026_may_current,4150,MONROE ST & MONROE PL,39.08304,-77.149088,2026-05-05,199,6,13.25,20.646,05:10:48,25:49:35,2026-05-09,120.0,18.978
2026_may_current,5610,NORTH BETHESDA STATION & BAY C,39.047381,-77.113209,2026-05-05,199,5,15.25,20.367,05:22:00,25:44:00,2026-05-09,106.0,19.45
2026_may_current,17071,MANNAKEE ST & CAMPUS (E) DR,39.096111,-77.156881,2026-05-05,192,2,11.75,20.928,05:00:16,25:55:56,2026-05-09,158.0,19.327
2026_may_current,3832,MANNAKEE ST & CAMPUS DR,39.096046,-77.156588,2026-05-05,192,2,11.5,19.981,04:55:29,24:54:22,2026-05-09,158.0,19.965
2026_may_current,3834,MANNAKEE ST & HUNGERFORD DR,39.09638,-77.154467,2026-05-05,192,2,11.75,19.976,04:56:09,24:54:44,2026-05-09,158.0,19.96
2026_may_current,3836,MANNAKEE ST & HUNGERFORD DR,39.096429,-77.154941,2026-05-05,192,2,11.75,20.926,04:59:56,25:55:28,2026-05-09,158.0,19.324
2026_may_current,30120,SILVER SPRING STATION & BAY 229,38.994041,-77.030027,2026-05-05,191,1,14.0,19.367,05:25:00,24:47:00,2026-05-09,152.0,19.15
2026_may_current,14601,SHADY GROVE STATION & BAY C,39.120751,-77.163278,2026-05-05,190,3,11.75,19.2,04:55:00,24:07:00,2026-05-09,138.0,16.717
2026_may_current,6110,SOMERVILLE DR & REDLAND RD,39.117687,-77.165477,2026-05-05,188,5,12.25,20.682,04:54:28,25:35:23,2026-05-09,126.0,19.345
2026_may_current,3714,LOST KNIFE RD & CIDER MILL APTS,39.15628,-77.202226,2026-05-05,186,4,12.25,21.185,04:46:13,25:57:18,2026-05-09,144.0,19.497
2026_may_current,1080,CLUB HOUSE RD & MONTGOMERY VILLAGE AVE,39.174381,-77.205516,2026-05-05,185,4,12.0,21.217,04:50:00,26:03:00,2026-05-09,114.0,19.883
2026_may_current,3718,LOST KNIFE RD & CONTOUR RD,39.154583,-77.201011,2026-05-05,184,4,12.0,20.25,04:38:07,24:53:07,2026-05-09,141.0,19.186
2026_may_current,3716,LOST KNIFE RD & MONTGOMERY VILLAGE AVE,39.157317,-77.203813,2026-05-05,184,4,11.75,20.249,04:36:56,24:51:51,2026-05-09,141.0,19.188
2026_may_current,6330,TAKOMA STATION & BAY H,38.975629,-77.017007,2026-05-05,183,5,13.25,20.65,04:25:00,25:04:00,2026-05-09,134.0,20.15
2026_may_current,15414,WHEATON STATION & BAY C,39.037727,-77.050917,2026-05-05,183,1,11.5,21.717,04:29:00,26:12:00,2026-05-09,139.0,21.217
2026_may_current,6814,VEIRS MILL RD & CLARIDGE RD,39.048473,-77.068976,2026-05-05,182,4,11.75,21.467,04:32:55,26:00:55,2026-05-09,124.0,20.95
2026_may_current,6812,VEIRS MILL RD & PENDLETON DR,39.0468,-77.067241,2026-05-05,182,4,12.25,21.467,04:32:26,26:00:26,2026-05-09,124.0,20.95
2026_may_current,5542,NORTH BETHESDA STATION & BAY B,39.048142,-77.113201,2026-05-05,181,4,14.0,20.967,04:37:00,25:35:00,2026-05-09,105.0,18.883
2026_may_current,15554,PINEY BRANCH RD & UNIVERSITY BLVD,38.999349,-76.99619,2026-05-05,179,4,12.25,20.75,04:51:55,25:36:55,2026-05-09,138.0,20.288
2026_may_current,8836,SHAKESPEARE BLVD & MILESTONE PARK & RIDE,39.197523,-77.249316,2026-05-05,172,5,10.0,20.561,04:59:00,25:32:40,2026-05-09,104.0,18.867
2026_may_current,2178,FENTON ST & BONIFANT ST,38.994651,-77.024246,2026-05-05,167,4,10.75,20.189,05:05:08,25:16:28,2026-05-09,145.0,19.536
2026_may_current,16038,FENTON ST & COLESVILLE RD,38.997287,-77.026624,2026-05-05,167,4,10.5,20.186,05:03:33,25:14:42,2026-05-09,145.0,19.526
2026_may_current,16011,FENTON ST & ELLSWORTH DR,38.99664,-77.025286,2026-05-05,167,4,10.75,20.187,05:04:07,25:15:20,2026-05-09,145.0,19.529
2026_may_current,8216,ROCKVILLE STATION & BAY J,39.084947,-77.146424,2026-05-05,167,2,11.25,20.0,05:05:00,25:05:00,2026-05-09,111.0,16.783
2026_may_current,6816,VEIRS MILL RD & ANDREW ST,39.049953,-77.071362,2026-05-05,166,3,10.25,21.467,04:33:26,26:01:26,2026-05-09,124.0,20.95
2026_may_current,6804,VEIRS MILL RD & GALT AVE,39.041534,-77.058023,2026-05-05,166,3,10.75,21.467,04:30:28,25:58:28,2026-05-09,124.0,20.95
2026_may_current,6806,VEIRS MILL RD & MONTERREY DR,39.042896,-77.060615,2026-05-05,166,3,10.75,21.467,04:31:00,25:59:00,2026-05-09,124.0,20.95
2026_may_current,6808,VEIRS MILL RD & MONTERREY DR,39.044053,-77.062868,2026-05-05,166,3,10.75,21.467,04:31:28,25:59:28,2026-05-09,124.0,20.95
2026_may_current,6810,VEIRS MILL RD & NEWPORT MILL RD,39.045035,-77.064615,2026-05-05,166,3,10.75,21.467,04:31:50,25:59:50,2026-05-09,124.0,20.95
2026_may_current,6802,VEIRS MILL RD & UNIVERSITY W BLVD,39.040346,-77.055777,2026-05-05,166,3,10.75,21.467,04:30:00,25:58:00,2026-05-09,124.0,20.95
2026_may_current,8834,SHAKESPEARE BLVD & FREDERICK RD,39.198327,-77.245726,2026-05-05,164,5,10.0,20.559,04:58:26,25:32:00,2026-05-09,104.0,18.867
2026_may_current,6826,VEIRS MILL RD & CENTERHILL ST,39.050171,-77.072563,2026-05-05,164,3,10.5,20.845,05:17:09,26:07:50,2026-05-09,122.0,20.39
2026_may_current,6840,VEIRS MILL RD & COLLEGE VIEW DR,39.041679,-77.058861,2026-05-05,164,3,10.5,20.838,05:20:03,26:10:19,2026-05-09,122.0,20.355
2026_may_current,6824,VEIRS MILL RD & CONNECTICUT AVE,39.051647,-77.075087,2026-05-05,164,3,10.5,20.846,05:16:38,26:07:23,2026-05-09,122.0,20.396
2026_may_current,6834,VEIRS MILL RD & NEWPORT MILL RD,39.044885,-77.064923,2026-05-05,164,3,10.5,20.841,05:18:51,26:09:17,2026-05-09,122.0,20.369
2026_may_current,6836,VEIRS MILL RD & NORRIS DR,39.044054,-77.063332,2026-05-05,164,3,10.25,20.84,05:19:10,26:09:33,2026-05-09,122.0,20.366
2026_may_current,6838,VEIRS MILL RD & SCHOOLHOUSE CIR,39.042722,-77.06082,2026-05-05,164,3,10.5,20.839,05:19:40,26:09:59,2026-05-09,122.0,20.359
2026_may_current,6842,VEIRS MILL RD & UNIVERSITY W BLVD,39.040242,-77.056245,2026-05-05,164,3,10.5,20.836,05:20:35,26:10:46,2026-05-09,122.0,20.348
2026_may_current,14776,SHADY GROVE STATION & BAY J,39.119559,-77.164734,2026-05-05,162,4,12.0,19.083,04:55:00,24:00:00,2026-05-09,67.0,17.533
2026_may_current,8974,SOMERVILLE DR & @15910,39.117809,-77.166695,2026-05-05,162,4,10.0,20.349,04:52:06,25:13:01,2026-05-09,124.0,19.2
2026_may_current,2494,S FREDERICK AVE & S WESTLAND DR,39.126292,-77.182941,2026-05-05,159,3,11.75,20.29,05:22:46,25:40:09,2026-05-09,92.0,19.317
2026_may_current,4654,OLD GEORGETOWN RD & COMMERCE LN,38.9862,-77.096487,2026-05-05,156,6,11.25,19.406,05:11:54,24:36:16,2026-05-09,78.0,18.917
2026_may_current,4656,OLD GEORGETOWN RD & WOODMONT AVE,38.986518,-77.097025,2026-05-05,156,6,11.25,19.404,05:12:11,24:36:27,2026-05-09,78.0,18.917
2026_may_current,8838,SHAKESPEARE BLVD & OBSERVATION DR,39.197542,-77.252824,2026-05-05,156,4,9.75,20.805,04:45:00,25:33:17,2026-05-09,104.0,18.867
2026_may_current,4728,OLD GEORGETOWN RD & ARLINGTON RD,38.987188,-77.098391,2026-05-05,155,6,12.0,19.236,05:12:03,24:26:14,2026-05-09,78.0,18.167
2026_may_current,308,BETHESDA STATION & BAY E,38.984798,-77.095371,2026-05-05,154,4,10.0,18.217,05:15:00,23:28:00,2026-05-09,75.0,15.517
2026_may_current,4902,PINEY BRANCH RD & MANCHESTER RD,38.99722,-77.004816,2026-05-05,154,4,10.0,20.75,04:49:10,25:34:10,2026-05-09,111.0,20.281
2026_may_current,2654,S FREDERICK AVE & S WESTLAND DR,39.125636,-77.182524,2026-05-05,154,3,11.75,20.334,04:47:49,25:07:50,2026-05-09,91.0,19.2
2026_may_current,16024,COLESVILLE RD & SPRING ST,38.998812,-77.026165,2026-05-05,153,7,11.0,19.956,04:47:22,24:44:45,2026-05-09,97.0,19.0
2026_may_current,1460,CONTOUR RD & HORIZON RUN RD,39.155856,-77.198464,2026-05-05,153,3,9.25,20.595,05:20:47,25:56:28,2026-05-09,119.0,19.218
2026_may_current,1462,CONTOUR RD & LOST KNIFE RD,39.15529,-77.200613,2026-05-05,153,3,9.25,20.594,05:21:11,25:56:51,2026-05-09,119.0,19.218
2026_may_current,1456,CONTOUR RD & ODENDHAL AVE,39.152762,-77.195989,2026-05-05,153,3,9.25,20.595,05:19:57,25:55:40,2026-05-09,119.0,19.217
2026_may_current,1458,CONTOUR RD & TUNSTALL DR,39.154378,-77.196693,2026-05-05,153,3,9.25,20.595,05:20:20,25:56:02,2026-05-09,119.0,19.217
2026_may_current,4640,ODENDHAL AVE & FREDERICK AVE,39.148614,-77.206481,2026-05-05,153,3,9.0,21.221,04:39:31,25:52:46,2026-05-09,119.0,19.218
2026_may_current,4642,ODENDHAL AVE & RUSSELL AVE,39.150007,-77.204669,2026-05-05,153,3,9.0,21.22,04:40:03,25:53:14,2026-05-09,119.0,19.218
2026_may_current,1154,COLESVILLE RD & SPRING ST,38.998359,-77.026699,2026-05-05,152,7,11.0,20.022,04:51:19,24:52:39,2026-05-09,94.0,19.217
2026_may_current,6934,N WASHINGTON ST & BEALL AVE,39.086761,-77.152875,2026-05-05,152,3,9.75,20.754,05:06:43,25:51:59,2026-05-09,119.0,19.058
2026_may_current,6936,N WASHINGTON ST & DAWSON AVE,39.088525,-77.153572,2026-05-05,152,3,9.75,20.756,05:07:12,25:52:33,2026-05-09,119.0,19.056
2026_may_current,6938,N WASHINGTON ST & MARTINS LN,39.090341,-77.153626,2026-05-05,152,3,9.75,20.757,05:07:40,25:53:06,2026-05-09,119.0,19.055
2026_may_current,6932,N WASHINGTON ST & MIDDLE LN,39.085416,-77.152859,2026-05-05,152,3,10.0,20.754,05:06:22,25:51:35,2026-05-09,119.0,19.059
2026_may_current,4652,ODENDHAL AVE & FREDERICK AVE,39.148635,-77.206778,2026-05-05,152,3,8.75,20.245,04:40:57,24:55:39,2026-05-09,118.0,19.188
2026_may_current,4650,ODENDHAL AVE & RUSSELL AVE,39.150146,-77.204794,2026-05-05,152,3,8.75,20.246,04:40:28,24:55:13,2026-05-09,118.0,19.187
2026_may_current,17484,SILVER SPRING STATION & BAY 222,38.993784,-77.030334,2026-05-05,151,2,9.75,20.833,04:35:00,25:25:00,2026-05-09,106.0,20.85
2026_may_current,6942,N WASHINGTON ST & DAWSON AVE,39.089001,-77.153837,2026-05-05,150,3,9.25,19.933,04:59:34,24:55:34,2026-05-09,118.0,19.933
2026_may_current,6940,N WASHINGTON ST & MARTINS LN,39.091213,-77.153724,2026-05-05,150,3,9.5,19.94,04:58:41,24:55:06,2026-05-09,118.0,19.94
2026_may_current,6002,SHADY GROVE STATION & BAY B,39.120861,-77.16307,2026-05-05,150,5,11.75,17.367,05:05:00,22:27:00,2026-05-09,85.0,14.533
2026_may_current,6006,SHADY GROVE STATION & BAY D,39.120658,-77.163467,2026-05-05,150,3,10.0,19.283,04:55:00,24:12:00,2026-05-09,92.0,15.667
2026_may_current,4010,MEDICAL CENTER STATION & BAY E,38.999281,-77.098122,2026-05-05,148,3,14.0,15.983,05:30:00,21:29:00,,,
2026_may_current,30255,SHADY GROVE MEDICAL CENTER - SOUTH & MEDICAL CENTER WAY,39.096965,-77.199868,2026-05-05,148,4,11.75,18.467,05:13:00,23:41:00,2026-05-09,74.0,14.733
2026_may_current,30256,SHADY GROVE MEDICAL CENTER - SOUTH & MEDICAL CENTER WAY,39.096653,-77.199642,2026-05-05,148,4,11.5,18.767,05:13:00,23:59:00,2026-05-09,75.0,15.3
2026_may_current,30129,BRIGGS CHANEY PARK & RIDE &,39.07801,-76.942113,2026-05-05,146,1,7.25,19.833,05:15:00,25:05:00,2026-05-09,152.0,19.5
2026_may_current,30130,CASTLE BLVD &,39.085218,-76.94054,2026-05-05,146,1,7.5,19.744,05:17:52,25:02:31,2026-05-09,152.0,19.407
2026_may_current,4008,MEDICAL CENTER STATION & BAY D,38.999361,-77.098316,2026-05-05,144,2,8.25,20.033,05:23:00,25:25:00,2026-05-09,111.0,19.167
2026_may_current,5850,2ND AVE & @1400,38.996788,-77.032958,2026-05-05,140,5,9.25,20.561,05:32:29,26:06:07,2026-05-09,92.0,18.939
2026_may_current,5848,2ND AVE & SPRING ST,38.997572,-77.034244,2026-05-05,140,5,9.5,20.561,05:32:10,26:05:49,2026-05-09,92.0,18.938
2026_may_current,806,CARROLL AVE & MAPLE AVE,38.974994,-77.015418,2026-05-05,140,5,10.0,20.51,05:15:48,25:46:25,2026-05-09,101.0,19.769
2026_may_current,7738,CHAPMAN AVE & BOUIC AVE,39.061214,-77.12122,2026-05-05,140,3,9.25,20.628,04:51:53,25:29:33,2026-05-09,105.0,19.692
2026_may_current,3216,HALPINE RD & ROCKVILLE PIKE,39.061943,-77.123564,2026-05-05,140,3,9.25,20.632,04:50:51,25:28:47,2026-05-09,105.0,19.689
2026_may_current,5968,WESTSIDE AT SHADY GROVE & CRABBS BRANCH WAY,39.128573,-77.167749,2026-05-05,140,3,10.0,19.289,04:52:40,24:09:59,2026-05-09,75.0,16.183
2026_may_current,4194,OBSERVATION DR & MONTGOMERY COLLEGE,39.187903,-77.249488,2026-05-05,139,1,8.25,21.317,04:18:00,25:37:00,2026-05-09,117.0,20.633
2026_may_current,14775,ROCKVILLE STATION & BAY B,39.084042,-77.14627,2026-05-05,139,1,9.0,19.9,05:04:00,24:58:00,2026-05-09,117.0,19.183
2026_may_current,6010,SHADY GROVE STATION & BAY F,39.120473,-77.163855,2026-05-05,139,1,11.75,14.65,05:05:00,19:44:00,2026-05-09,52.0,12.85
2026_may_current,6822,VEIRS MILL RD & TWINBROOK PKWY,39.073122,-77.111665,2026-05-05,139,2,9.5,21.0,05:02:00,26:02:00,2026-05-09,103.0,20.45
2026_may_current,5618,ROCKVILLE PIKE & SECURITY LN,39.041631,-77.110458,2026-05-05,138,3,10.0,20.369,05:23:22,25:45:31,2026-05-09,71.0,19.374
2026_may_current,14637,VEIRS MILL RD & ASPEN HILL RD,39.069583,-77.105217,2026-05-05,138,2,9.5,21.467,04:39:44,26:07:44,2026-05-09,105.0,20.95
2026_may_current,15422,WHEATON STATION & BAY F,39.038104,-77.051429,2026-05-05,136,2,7.5,20.017,05:00:00,25:01:00,2026-05-09,117.0,19.133
2026_may_current,4900,PINEY BRANCH RD & PARK CREST DR,38.994327,-77.008295,2026-05-05,135,4,9.5,20.23,05:10:00,25:23:49,2026-05-09,106.0,19.567
2026_may_current,8058,VEIRS MILL RD & BUSHEY DR,39.054883,-77.080031,2026-05-05,135,2,8.5,21.467,04:35:17,26:03:17,2026-05-09,99.0,20.95
2026_may_current,8054,VEIRS MILL RD & CONNECTICUT AVE,39.052261,-77.075488,2026-05-05,135,2,8.5,21.467,04:34:19,26:02:19,2026-05-09,99.0,20.95
2026_may_current,8056,VEIRS MILL RD & FERRARA AVE,39.053305,-77.077138,2026-05-05,135,2,8.5,21.467,04:34:41,26:02:41,2026-05-09,99.0,20.95
2026_may_current,8062,VEIRS MILL RD & GRIDLEY RD,39.057624,-77.084865,2026-05-05,135,2,8.5,21.467,04:36:20,26:04:20,2026-05-09,99.0,20.95
2026_may_current,8064,VEIRS MILL RD & HAVARD ST,39.058305,-77.086038,2026-05-05,135,2,8.5,21.467,04:36:31,26:04:31,2026-05-09,99.0,20.95
2026_may_current,8060,VEIRS MILL RD & RANDOLPH RD,39.056497,-77.082853,2026-05-05,135,2,8.5,21.467,04:36:00,26:04:00,2026-05-09,99.0,20.95
2026_may_current,8066,VEIRS MILL RD & TURKEY BRANCH PKWY,39.060307,-77.089546,2026-05-05,135,2,8.5,21.467,04:37:06,26:05:06,2026-05-09,99.0,20.95
2026_may_current,2168,FENTON ST & BONIFANT ST,38.994221,-77.024023,2026-05-05,134,3,9.0,20.112,04:51:56,24:58:41,2026-05-09,113.0,19.634
2026_may_current,14874,FENTON ST & ELLSWORTH DR,38.997145,-77.025771,2026-05-05,134,3,9.0,20.11,04:52:36,24:59:11,2026-05-09,113.0,19.631
2026_may_current,2170,FENTON ST & WAYNE AVE,38.995226,-77.024256,2026-05-05,134,3,9.0,20.112,04:52:08,24:58:50,2026-05-09,113.0,19.633
2026_may_current,5536,ROCKVILLE PIKE & SECURITY LN,39.042215,-77.110334,2026-05-05,133,3,10.25,20.189,05:22:25,25:33:46,2026-05-09,71.0,18.833
2026_may_current,7882,VEIRS MILL RD & BUSHEY DR,39.054463,-77.079727,2026-05-05,133,2,8.5,20.848,05:15:40,26:06:34,2026-05-09,97.0,20.408
2026_may_current,6830,VEIRS MILL RD & CLARIDGE RD,39.048254,-77.069194,2026-05-05,133,2,8.5,20.843,05:17:51,26:08:26,2026-05-09,97.0,20.382
2026_may_current,7874,VEIRS MILL RD & EDGEBROOK RD,39.059628,-77.088864,2026-05-05,133,2,8.5,20.856,05:13:45,26:05:08,2026-05-09,97.0,20.423
2026_may_current,7886,VEIRS MILL RD & FERRARA AVE,39.05308,-77.077311,2026-05-05,133,2,8.5,20.847,05:16:10,26:06:59,2026-05-09,97.0,20.402
2026_may_current,6828,VEIRS MILL RD & GAIL ST,39.049453,-77.070979,2026-05-05,133,2,8.5,20.844,05:17:27,26:08:05,2026-05-09,97.0,20.386
2026_may_current,7878,VEIRS MILL RD & GRIDLEY RD,39.057198,-77.08461,2026-05-05,133,2,8.5,20.851,05:14:37,26:05:42,2026-05-09,97.0,20.418
2026_may_current,7876,VEIRS MILL RD & HAVARD ST,39.058341,-77.086597,2026-05-05,133,2,8.5,20.854,05:14:13,26:05:26,2026-05-09,97.0,20.42
2026_may_current,6832,VEIRS MILL RD & PENDLETON DR,39.046845,-77.067732,2026-05-05,133,2,8.5,20.842,05:18:14,26:08:45,2026-05-09,97.0,20.377
2026_may_current,7880,VEIRS MILL RD & RANDOLPH RD,39.056271,-77.083064,2026-05-05,133,2,8.5,20.85,05:15:00,26:06:00,2026-05-09,97.0,20.417
2026_may_current,17635,WOODMONT AVE & OLD GEORGETOWN RD,38.98595,-77.097046,2026-05-05,133,5,8.75,19.067,05:22:48,24:26:48,2026-05-09,78.0,18.167
2026_may_current,4944,PINEY BRANCH RD & DALE DR,38.993871,-77.008971,2026-05-05,132,4,9.75,20.117,04:47:26,24:54:26,2026-05-09,108.0,19.638
2026_may_current,4942,PINEY BRANCH RD & PARK CREST DR,38.994402,-77.008412,2026-05-05,132,4,9.5,20.117,04:47:18,24:54:18,2026-05-09,108.0,19.639
2026_may_current,4946,PINEY BRANCH RD & SILVER SPRING AVE,38.992582,-77.009743,2026-05-05,132,4,9.75,20.117,04:47:43,24:54:43,2026-05-09,108.0,19.637
2026_may_current,4948,PINEY BRANCH RD & SLIGO AVE,38.99169,-77.010139,2026-05-05,132,4,9.5,20.117,04:48:00,24:55:00,2026-05-09,108.0,19.639
2026_may_current,8842,SHAKESPEARE BLVD & AMBER RIDGE DR,39.197259,-77.249553,2026-05-05,132,3,8.0,19.933,04:21:33,24:17:33,2026-05-09,103.0,19.181
2026_may_current,8844,SHAKESPEARE BLVD & ETON MANOR DR,39.197782,-77.24672,2026-05-05,132,3,8.0,19.933,04:22:00,24:18:00,2026-05-09,103.0,19.183
2026_may_current,8840,SHAKESPEARE BLVD & OBSERVATION DR,39.197281,-77.252489,2026-05-05,132,3,7.75,19.933,04:21:08,24:17:08,2026-05-09,103.0,19.179
2026_may_current,4502,TAKOMA-LANGLEY TRANSIT CENTER & BAY G,38.989831,-76.987734,2026-05-05,132,3,9.25,20.617,05:00:00,25:37:00,2026-05-09,91.0,19.583
2026_may_current,4820,PARKLAWN DR & TWINBROOK PKWY,39.061683,-77.117143,2026-05-05,131,3,10.5,20.0,04:54:32,24:54:32,2026-05-09,88.0,19.114
2026_may_current,4658,OLD GEORGETOWN RD & FAIRMONT AVE,38.987235,-77.098196,2026-05-05,130,5,9.75,19.401,05:12:48,24:36:51,2026-05-09,55.0,18.917
2026_may_current,8410,ROCK SPRING DR & ROCKLEDGE DR,39.027004,-77.132736,2026-05-05,129,4,9.5,20.0,04:27:40,24:27:40,2026-05-09,60.0,18.667
2026_may_current,5644,ROCKVILLE PIKE & NORTH DR,39.004847,-77.097664,2026-05-05,129,4,7.5,19.939,05:15:22,25:11:41,2026-05-09,70.0,18.85
2026_may_current,9684,CARROLL AVE & COLUMBIA AVE,38.975864,-77.009033,2026-05-05,127,4,9.0,20.159,04:27:58,24:37:31,2026-05-09,103.0,19.5
2026_may_current,744,CARROLL AVE & LAUREL AVE,38.974611,-77.01256,2026-05-05,127,4,9.0,20.162,04:26:57,24:36:41,2026-05-09,103.0,19.5
2026_may_current,742,CARROLL AVE & MAPLE AVE,38.974798,-77.014506,2026-05-05,127,4,9.0,20.164,04:26:27,24:36:17,2026-05-09,103.0,19.5
2026_may_current,800,CARROLL AVE & PARK AVE,38.975989,-77.009081,2026-05-05,127,4,9.5,20.427,05:19:21,25:44:57,2026-05-09,101.0,19.771
2026_may_current,748,CARROLL AVE & PHILADELPHIA AVE,38.977438,-77.007737,2026-05-05,127,4,9.0,20.158,04:28:34,24:38:01,2026-05-09,103.0,19.5
2026_may_current,798,CARROLL AVE & PHILADELPHIA AVE,38.97766,-77.007611,2026-05-05,127,4,9.75,20.424,05:18:56,25:44:24,2026-05-09,101.0,19.771
2026_may_current,746,CARROLL AVE & TULIP AVE,38.975171,-77.010043,2026-05-05,127,4,9.0,20.16,04:27:38,24:37:15,2026-05-09,103.0,19.5
2026_may_current,802,CARROLL AVE & TULIP AVE,38.975259,-77.010204,2026-05-05,127,4,9.5,20.428,05:19:36,25:45:16,2026-05-09,101.0,19.77
2026_may_current,804,CARROLL AVE & WILLOW AVE,38.974794,-77.012938,2026-05-05,127,4,9.0,20.43,05:20:06,25:45:54,2026-05-09,101.0,19.769
2026_may_current,8412,ROCK SPRING DR & ROCKLEDGE DR,39.027235,-77.132707,2026-05-05,127,4,8.25,19.349,05:28:04,24:49:00,2026-05-09,61.0,18.717
2026_may_current,5852,2ND AVE & COLESVILLE RD,38.995132,-77.031169,2026-05-05,126,5,8.75,20.56,05:33:03,26:06:39,2026-05-09,69.0,18.941
2026_may_current,4254,MONTGOMERY VILLAGE AVE & CENTERWAY RD,39.172255,-77.203859,2026-05-05,124,5,8.5,19.921,04:50:56,24:46:12,2026-05-09,81.0,18.583
2026_may_current,4256,MONTGOMERY VILLAGE AVE & STEDWICK RD,39.169952,-77.204516,2026-05-05,124,5,8.5,19.925,04:51:22,24:46:53,2026-05-09,81.0,18.583
2026_may_current,1284,CONNECTICUT AVE & PLYERS MILL RD,39.029321,-77.075878,2026-05-05,123,5,9.5,20.367,05:31:16,25:53:18,2026-05-09,59.0,18.952
2026_may_current,6944,N WASHINGTON ST & BEALL AVE,39.086671,-77.153077,2026-05-05,122,2,7.0,19.926,05:00:32,24:56:05,2026-05-09,99.0,19.926
2026_may_current,6946,N WASHINGTON ST & MIDDLE LN,39.085235,-77.153057,2026-05-05,122,2,7.0,19.921,05:01:06,24:56:23,2026-05-09,99.0,19.921
2026_may_current,17487,SILVER SPRING STATION & BAY 227,38.993609,-77.029899,2026-05-05,122,2,6.5,19.317,05:01:00,24:20:00,2026-05-09,96.0,17.583
2026_may_current,2486,FREDERICK RD & MIDWAY CENTER,39.117706,-77.169452,2026-05-05,121,3,7.75,20.294,05:19:32,25:37:11,2026-05-09,92.0,19.306
2026_may_current,14530,FREDERICK RD & RIDGEMONT AVE,39.119166,-77.172222,2026-05-05,121,3,7.5,20.328,04:50:23,25:10:03,2026-05-09,91.0,19.2
2026_may_current,14535,FREDERICK RD & RIDGEMONT AVE,39.11907,-77.171538,2026-05-05,121,3,7.75,20.292,05:20:08,25:37:38,2026-05-09,92.0,19.308
2026_may_current,2490,FREDERICK RD & SHADY GROVE RD,39.123038,-77.177994,2026-05-05,121,3,7.5,20.283,05:22:00,25:39:00,2026-05-09,92.0,19.317
2026_may_current,2658,FREDERICK RD & SHADY GROVE RD,39.122133,-77.177274,2026-05-05,121,3,7.5,20.333,04:49:00,25:09:00,2026-05-09,91.0,19.2
2026_may_current,6016,METRO ACCESS RD & SOMERVILLE DR,39.117987,-77.168117,2026-05-05,121,3,7.5,20.323,04:51:36,25:10:59,2026-05-09,91.0,19.2
2026_may_current,17552,FENTON ST & THAYER AVE,38.993187,-77.024167,2026-05-05,119,3,7.75,20.097,05:11:24,25:17:13,2026-05-09,108.0,19.54
2026_may_current,4722,OLD GEORGETOWN RD & BATTERY LN,38.990023,-77.10317,2026-05-05,118,4,9.0,19.231,05:11:01,24:24:53,2026-05-09,55.0,18.167
2026_may_current,4660,OLD GEORGETOWN RD & CORDELL AVE,38.98816,-77.099748,2026-05-05,118,4,8.25,19.396,05:13:37,24:37:23,2026-05-09,55.0,18.917
2026_may_current,4726,OLD GEORGETOWN RD & DEL RAY AVE,38.988162,-77.100105,2026-05-05,118,4,9.0,19.234,05:11:41,24:25:45,2026-05-09,55.0,18.167
2026_may_current,4662,OLD GEORGETOWN RD & GLENBROOK RD,38.989557,-77.101988,2026-05-05,118,4,8.25,19.389,05:14:49,24:38:11,2026-05-09,55.0,18.917
2026_may_current,4724,OLD GEORGETOWN RD & GLENBROOK RD,38.989076,-77.101652,2026-05-05,118,4,9.0,19.233,05:11:21,24:25:19,2026-05-09,55.0,18.167
2026_may_current,3400,E JEFFERSON ST & MARYLAND AVE,39.082747,-77.150808,2026-05-05,117,3,7.0,20.653,05:11:13,25:50:24,2026-05-09,68.0,18.983
2026_may_current,3406,E JEFFERSON ST & MARYLAND AVE,39.082836,-77.151484,2026-05-05,117,3,7.0,19.654,05:02:23,24:41:38,2026-05-09,67.0,18.821
2026_may_current,1916,EAST WEST HWY & COLESVILLE RD,38.994318,-77.033133,2026-05-05,116,4,8.0,18.917,04:50:51,23:45:51,2026-05-09,89.0,18.096
2026_may_current,1918,EAST WEST HWY & W FALKLAND LN,38.994622,-77.035166,2026-05-05,116,4,8.0,18.917,04:51:18,23:46:18,2026-05-09,89.0,18.101
2026_may_current,17480,SILVER SPRING STATION & BAY 110,38.993781,-77.030076,2026-05-05,116,2,7.0,18.417,04:45:00,23:10:00,2026-05-09,84.0,16.0
2026_may_current,1100,COLESVILLE RD & NORTH NOYES DR,39.001583,-77.025003,2026-05-05,115,6,9.0,18.01,04:48:21,22:48:56,2026-05-09,65.0,16.009
2026_may_current,1098,COLESVILLE RD & NOYES DR,38.999908,-77.025696,2026-05-05,115,6,9.0,18.008,04:47:45,22:48:14,2026-05-09,65.0,16.008
2026_may_current,1102,COLESVILLE RD & ROWEN RD,39.003878,-77.023691,2026-05-05,115,6,9.0,18.012,04:49:12,22:49:56,2026-05-09,65.0,16.011
2026_may_current,5504,MEDICAL CENTER STATION & BAY H,38.99995,-77.096792,2026-05-05,115,3,6.75,20.032,05:23:21,25:25:18,2026-05-09,70.0,19.018
2026_may_current,5506,ROCKVILLE PIKE & NORTH WOOD DR,39.004088,-77.097203,2026-05-05,115,3,6.75,20.032,05:24:12,25:26:06,2026-05-09,70.0,19.018
2026_may_current,5662,ROCKVILLE STATION & BAY F,39.084753,-77.147074,2026-05-05,115,3,9.75,18.233,05:15:00,23:29:00,2026-05-09,52.0,15.35
2026_may_current,2506,S FREDERICK AVE & SUMMIT AVE,39.138523,-77.194668,2026-05-05,115,2,8.75,19.696,05:26:08,25:07:54,2026-05-09,59.0,18.867
2026_may_current,1146,COLESVILLE RD & DALE DR,39.005024,-77.023215,2026-05-05,114,6,8.5,18.119,04:57:39,23:04:47,2026-05-09,62.0,14.969
2026_may_current,1150,COLESVILLE RD & NORTH NOYES DR,39.001502,-77.025294,2026-05-05,114,6,8.75,18.122,04:58:43,23:06:03,2026-05-09,62.0,14.972
2026_may_current,1152,COLESVILLE RD & NOYES DR,38.999691,-77.026002,2026-05-05,114,6,8.75,18.124,04:59:14,23:06:40,2026-05-09,62.0,14.974
2026_may_current,1148,COLESVILLE RD & ROWEN RD,39.004102,-77.023823,2026-05-05,114,6,8.5,18.12,04:57:56,23:05:07,2026-05-09,62.0,14.97
2026_may_current,1144,COLESVILLE RD & SLIGO CREEK PKWY,39.00695,-77.021364,2026-05-05,114,6,8.5,18.117,04:57:00,23:04:00,2026-05-09,62.0,14.967
2026_may_current,2508,N FREDERICK AVE & BROOKES AVE,39.143161,-77.200485,2026-05-05,114,2,6.75,20.382,05:28:03,25:50:59,2026-05-09,92.0,19.218
2026_may_current,2510,N FREDERICK AVE & CHESTNUT ST,39.144681,-77.202305,2026-05-05,114,2,6.75,20.38,05:28:39,25:51:28,2026-05-09,92.0,19.218
2026_may_current,2512,N FREDERICK AVE & MONTGOMERY AVE,39.146023,-77.203938,2026-05-05,114,2,6.75,20.379,05:29:11,25:51:54,2026-05-09,92.0,19.218
2026_may_current,2514,N FREDERICK AVE & WHETSTONE DR,39.147535,-77.20577,2026-05-05,114,2,6.75,20.377,05:29:47,25:52:23,2026-05-09,92.0,19.218
2026_may_current,2498,S FREDERICK AVE & CENTRAL AVE,39.130145,-77.186914,2026-05-05,114,2,6.5,20.296,05:23:31,25:41:17,2026-05-09,92.0,19.317
2026_may_current,8366,S FREDERICK AVE & FULKS CORNER AVE,39.140251,-77.196812,2026-05-05,114,2,6.75,20.386,05:26:50,25:50:00,2026-05-09,92.0,19.219
2026_may_current,2496,S FREDERICK AVE & N WESTLAND DR,39.127892,-77.184926,2026-05-05,114,2,6.75,20.293,05:23:06,25:40:40,2026-05-09,92.0,19.317
2026_may_current,7062,WAYNE AVE & CEDAR ST,38.997421,-77.021393,2026-05-05,114,3,7.25,20.75,04:43:28,25:28:28,2026-05-09,85.0,20.262
2026_may_current,7068,WAYNE AVE & DALE DR,38.999195,-77.017729,2026-05-05,114,3,7.25,20.75,04:44:47,25:29:47,2026-05-09,85.0,20.266
2026_may_current,7066,WAYNE AVE & DARTMOUTH AVE,38.998902,-77.019301,2026-05-05,114,3,7.25,20.75,04:44:19,25:29:19,2026-05-09,85.0,20.265
2026_may_current,7070,WAYNE AVE & MANSFIELD RD,38.999835,-77.013002,2026-05-05,114,3,7.25,20.75,04:46:12,25:31:12,2026-05-09,85.0,20.271
2026_may_current,7064,WAYNE AVE & SPRINGVALE RD,38.998301,-77.020538,2026-05-05,114,3,7.25,20.75,04:43:52,25:28:52,2026-05-09,85.0,20.263
2026_may_current,306,BETHESDA STATION & BAY D,38.984798,-77.095451,2026-05-05,113,3,7.5,19.417,05:10:00,24:35:00,2026-05-09,81.0,18.917
2026_may_current,7086,E WAYNE AVE & SLIGO CREEK PKWY,38.999712,-77.010425,2026-05-05,113,3,7.0,20.75,04:29:04,25:14:04,2026-05-09,85.0,20.838
2026_may_current,3576,LAYHILL RD & BARRIE CAMPUS DR,39.077035,-77.046223,2026-05-05,113,4,9.25,20.006,05:24:51,25:25:12,2026-05-09,61.0,19.466
2026_may_current,3582,LAYHILL RD & BRIGGS RD,39.068636,-77.046217,2026-05-05,113,4,9.25,20.01,05:26:06,25:26:42,2026-05-09,61.0,19.466
2026_may_current,3584,LAYHILL RD & GLENALLAN AVE,39.06403,-77.049831,2026-05-05,113,4,9.25,20.012,05:26:55,25:27:39,2026-05-09,61.0,19.465
2026_may_current,3578,LAYHILL RD & HATHAWAY DR,39.074461,-77.045802,2026-05-05,113,4,9.25,20.007,05:25:14,25:25:39,2026-05-09,61.0,19.466
2026_may_current,3580,LAYHILL RD & MIDDLEBRIDGE DR,39.072914,-77.04568,2026-05-05,113,4,9.25,20.008,05:25:27,25:25:55,2026-05-09,61.0,19.466
2026_may_current,3583,LAYHILL RD & SADDLEBROOK PARK,39.065602,-77.047995,2026-05-05,113,4,9.25,20.011,05:26:36,25:27:17,2026-05-09,61.0,19.466
2026_may_current,2640,N FREDERICK AVE & BROOKES AVE,39.143188,-77.200854,2026-05-05,113,2,6.75,20.242,04:42:37,24:57:07,2026-05-09,91.0,19.192
2026_may_current,2638,N FREDERICK AVE & MARYLAND AVE,39.144671,-77.202672,2026-05-05,113,2,6.75,20.242,04:42:09,24:56:42,2026-05-09,91.0,19.191
2026_may_current,2636,N FREDERICK AVE & MONTGOMERY AVE,39.145869,-77.204144,2026-05-05,113,2,6.5,20.243,04:41:46,24:56:22,2026-05-09,91.0,19.19
2026_may_current,2634,N FREDERICK AVE & WHETSTONE DR,39.147466,-77.206043,2026-05-05,113,2,6.5,20.244,04:41:16,24:55:56,2026-05-09,91.0,19.189
2026_may_current,2656,S FREDERICK AVE & O'NEILL DR,39.124112,-77.180184,2026-05-05,113,2,6.75,20.333,04:48:20,25:08:20,2026-05-09,91.0,19.2
2026_may_current,2652,S FREDERICK AVE & ROSEMONT DR,39.128281,-77.185706,2026-05-05,113,2,6.75,20.334,04:47:02,25:07:04,2026-05-09,91.0,19.2
2026_may_current,2650,S FREDERICK AVE & VIRGINIA DR,39.130879,-77.187991,2026-05-05,113,2,6.75,20.334,04:46:21,25:06:24,2026-05-09,91.0,19.2
2026_may_current,17436,WAYNE AVE & @313,38.999679,-77.014894,2026-05-05,113,3,7.25,20.75,04:30:09,25:15:09,2026-05-09,85.0,20.84
2026_may_current,7098,WAYNE AVE & CEDAR ST,38.997342,-77.021786,2026-05-05,113,3,7.5,20.75,04:31:59,25:16:59,2026-05-09,85.0,20.844
2026_may_current,7092,WAYNE AVE & DALE DR,38.999406,-77.017144,2026-05-05,113,3,7.5,20.75,04:30:42,25:15:42,2026-05-09,85.0,20.841
2026_may_current,7094,WAYNE AVE & DARTMOUTH AVE,38.999091,-77.019233,2026-05-05,113,3,7.5,20.75,04:31:11,25:16:11,2026-05-09,85.0,20.842
2026_may_current,7088,WAYNE AVE & MANSFIELD RD,38.999984,-77.012966,2026-05-05,113,3,7.25,20.75,04:29:42,25:14:42,2026-05-09,85.0,20.839
2026_may_current,7096,WAYNE AVE & SPRINGVALE RD,38.998367,-77.020704,2026-05-05,113,3,7.5,20.75,04:31:35,25:16:35,2026-05-09,85.0,20.843
2026_may_current,3542,LAYHILL RD & BRIGGS RD,39.069577,-77.045388,2026-05-05,111,4,9.0,19.167,04:57:08,24:07:08,2026-05-09,62.0,18.667
2026_may_current,3540,LAYHILL RD & GLENALLAN AVE,39.063661,-77.049666,2026-05-05,111,4,9.0,19.167,04:56:05,24:06:05,2026-05-09,62.0,18.667
2026_may_current,3546,LAYHILL RD & HATHAWAY DR,39.074841,-77.045558,2026-05-05,111,4,9.0,19.167,04:57:56,24:07:56,2026-05-09,62.0,18.667
2026_may_current,3544,LAYHILL RD & MIDDLEBRIDGE DR,39.072518,-77.045317,2026-05-05,111,4,9.0,19.167,04:57:35,24:07:35,2026-05-09,62.0,18.667
2026_may_current,3548,LAYHILL RD & POPLAR RUN DR,39.07726,-77.045993,2026-05-05,111,4,9.0,19.167,04:58:18,24:08:18,2026-05-09,62.0,18.667
2026_may_current,10000,LAYHILL RD & SADDLEBROOK PARK,39.065489,-77.047719,2026-05-05,111,4,9.0,19.167,04:56:27,24:06:27,2026-05-09,62.0,18.667
2026_may_current,17490,SILVER SPRING STATION & BAY 232,38.993599,-77.029553,2026-05-05,111,2,7.5,21.133,05:00:00,26:08:00,2026-05-09,60.0,19.6
2026_may_current,2644,S FREDERICK AVE & SUMMIT AVE,39.137335,-77.193697,2026-05-05,110,2,9.25,19.887,04:44:30,24:37:42,2026-05-09,58.0,19.197
2026_may_current,2210,FERNWOOD RD & ROCKLEDGE DR,39.025764,-77.137782,2026-05-05,109,4,7.25,20.0,04:26:25,24:26:25,2026-05-09,60.0,18.667
2026_may_current,3996,LIFE SCI - EAST & JOHN HOPKINS UNIVERSITY,39.103173,-77.196414,2026-05-05,109,3,8.75,18.467,05:11:00,23:39:00,2026-05-09,48.0,14.533
2026_may_current,9478,CROWN - EAST & RESEARCH BLVD,39.106759,-77.195873,2026-05-05,108,3,8.75,17.717,05:17:00,23:00:00,2026-05-09,50.0,14.2
2026_may_current,4092,E MIDDLE LN & GIBBS ST,39.085156,-77.151771,2026-05-05,108,3,7.5,19.693,05:06:02,24:47:38,2026-05-09,87.0,18.838
2026_may_current,4090,E MIDDLE LN & MONROE ST,39.085226,-77.149444,2026-05-05,108,3,7.5,19.691,05:05:34,24:47:01,2026-05-09,87.0,18.837
2026_may_current,4914,PINEY BRANCH RD & KODIAK DR,38.999626,-76.992877,2026-05-05,108,3,7.75,20.234,05:15:19,25:29:20,2026-05-09,85.0,19.567
2026_may_current,4912,PINEY BRANCH RD & UNIVERSITY BLVD,38.999595,-76.994301,2026-05-05,108,3,7.75,20.233,05:15:00,25:29:00,2026-05-09,85.0,19.567
2026_may_current,2208,FERNWOOD RD & ROCK SPRING DR,39.025771,-77.137335,2026-05-05,107,4,6.25,19.344,05:28:59,24:49:38,2026-05-09,61.0,18.717
2026_may_current,8414,ROCK SPRING DR & @6700,39.027099,-77.134953,2026-05-05,107,4,6.25,19.347,05:28:25,24:49:14,2026-05-09,61.0,18.717
2026_may_current,30258,CROWN - EAST & RESEARCH BOULEVARD,39.10692,-77.195266,2026-05-05,106,3,8.5,17.283,05:17:00,22:34:00,2026-05-09,50.0,14.367
2026_may_current,4088,E MIDDLE LN & MONROE ST,39.085019,-77.149424,2026-05-05,106,3,7.0,19.867,05:05:00,24:57:00,2026-05-09,86.0,19.183
2026_may_current,5654,ROCKVILLE STATION & BAY A,39.083915,-77.146126,2026-05-05,106,1,6.0,20.717,05:05:00,25:48:00,2026-05-09,82.0,19.8
2026_may_current,6586,TWINBROOK STATION & BAY G,39.061829,-77.12044,2026-05-05,106,1,6.0,20.4,05:15:00,25:39:00,2026-05-09,82.0,19.5
2026_may_current,4926,PINEY BRANCH RD & CARROLL AVE,38.999997,-76.990962,2026-05-05,105,3,7.5,20.118,04:43:39,24:50:43,2026-05-09,86.0,19.645
2026_may_current,4928,PINEY BRANCH RD & KODIAK DR,38.99986,-76.992377,2026-05-05,105,3,7.5,20.117,04:44:00,24:51:02,2026-05-09,86.0,19.646
2026_may_current,7996,PINEY BRANCH RD & UNIVERSITY BLVD,38.999789,-76.993942,2026-05-05,105,3,7.25,20.117,04:44:22,24:51:23,2026-05-09,86.0,19.648
2026_may_current,6470,TUCKERMAN LN & ROCKVILLE PIKE,39.030713,-77.103967,2026-05-05,105,3,8.5,19.65,05:26:12,25:05:12,2026-05-09,41.0,18.847
2026_may_current,14859,ETHAN ALLEN AVE & CARROLL AVE,38.978124,-77.005768,2026-05-05,104,1,7.75,21.25,04:29:00,25:44:00,2026-05-09,97.0,20.783
2026_may_current,3564,LAYHILL RD & BEL PRE RD,39.089761,-77.044831,2026-05-05,104,3,7.75,20.0,05:23:00,25:23:00,2026-05-09,61.0,19.467
2026_may_current,3574,LAYHILL RD & DECKMAN LN,39.078779,-77.046692,2026-05-05,104,3,8.0,20.005,05:24:35,25:24:54,2026-05-09,61.0,19.466
2026_may_current,3568,LAYHILL RD & E GATE DR,39.085219,-77.045987,2026-05-05,104,3,7.75,20.002,05:23:38,25:23:45,2026-05-09,61.0,19.466
2026_may_current,10002,LAYHILL RD & GREENERY LN,39.06198,-77.050983,2026-05-05,104,3,8.25,20.013,05:27:14,25:28:02,2026-05-09,61.0,19.465
2026_may_current,3572,LAYHILL RD & MIDDLEVALE LN,39.08075,-77.047176,2026-05-05,104,3,8.0,20.004,05:24:18,25:24:33,2026-05-09,61.0,19.466
2026_may_current,3570,LAYHILL RD & POST LN,39.083373,-77.046675,2026-05-05,104,3,8.0,20.003,05:23:55,25:24:05,2026-05-09,61.0,19.466
2026_may_current,3566,LAYHILL RD & QUEENSGARD RD,39.087369,-77.045238,2026-05-05,104,3,7.75,20.0,05:23:06,25:23:07,2026-05-09,61.0,19.466
2026_may_current,30285,ROCKVILLE STATION & BAY D,39.084339,-77.146607,2026-05-05,104,1,6.0,21.467,04:47:00,26:15:00,2026-05-09,81.0,20.95
2026_may_current,5970,SHADY GROVE RD & BRIARDALE RD,39.133816,-77.157889,2026-05-05,104,4,7.5,18.047,04:52:12,22:55:00,2026-05-09,48.0,15.547
2026_may_current,5972,SHADY GROVE RD & TUPELO DR,39.138363,-77.1532,2026-05-05,104,4,7.5,18.06,04:52:54,22:56:31,2026-05-09,48.0,15.54
2026_may_current,17604,SILVER SPRING STATION & BAY 108,38.993604,-77.030154,2026-05-05,104,1,7.25,20.25,04:55:00,25:10:00,2026-05-09,97.0,19.633
2026_may_current,6154,STEDWICK RD & MILLS CHOICE RD,39.170361,-77.20738,2026-05-05,104,4,7.0,21.161,04:51:49,26:01:27,2026-05-09,57.0,18.973
2026_may_current,6152,STEDWICK RD & MONTGOMERY VILLAGE AVE,39.16995,-77.205252,2026-05-05,104,4,7.0,21.16,04:51:31,26:01:07,2026-05-09,57.0,18.974
2026_may_current,6156,STEDWICK RD & WATKINS MILL RD,39.170596,-77.208555,2026-05-05,104,4,7.0,21.161,04:51:59,26:01:38,2026-05-09,57.0,18.972
2026_may_current,5980,SHADY GROVE RD & BRIARDALE RD,39.133883,-77.158289,2026-05-05,103,4,7.25,17.3,05:18:57,22:36:57,2026-05-09,49.0,15.0
2026_may_current,5978,SHADY GROVE RD & EPSILON DR,39.138117,-77.153843,2026-05-05,103,4,7.5,17.293,05:17:40,22:35:14,2026-05-09,49.0,15.0
2026_may_current,6000,SHADY GROVE STATION & BAY A,39.120934,-77.162903,2026-05-05,103,3,8.25,16.85,04:45:00,21:36:00,,,
2026_may_current,3392,E JEFFERSON ST & JOSIAH HENSON PKWY,39.050259,-77.126026,2026-05-05,102,3,7.5,20.72,04:41:48,25:24:59,2026-05-09,64.0,18.787
2026_may_current,2050,EXECUTIVE BLVD & @6011,39.048888,-77.122057,2026-05-05,102,3,7.5,20.724,04:40:10,25:23:35,2026-05-09,64.0,18.792
2026_may_current,2052,EXECUTIVE BLVD & JEFFERSON ST,39.048795,-77.124107,2026-05-05,102,3,7.5,20.722,04:40:46,25:24:06,2026-05-09,64.0,18.79
2026_may_current,2048,EXECUTIVE BLVD & OLD GEORGETOWN RD,39.048928,-77.120354,2026-05-05,102,3,7.5,20.725,04:39:40,25:23:09,2026-05-09,64.0,18.794
2026_may_current,3550,LAYHILL RD & DECKMAN LN,39.079621,-77.046622,2026-05-05,102,3,7.75,19.167,04:58:40,24:08:40,2026-05-09,62.0,18.667
2026_may_current,3556,LAYHILL RD & E GATE DR,39.085684,-77.045507,2026-05-05,102,3,8.0,19.167,04:59:37,24:09:37,2026-05-09,62.0,18.667
2026_may_current,9976,LAYHILL RD & GREENERY LN,39.061294,-77.050686,2026-05-05,102,3,7.75,19.167,04:55:42,24:05:42,2026-05-09,62.0,18.667
2026_may_current,3552,LAYHILL RD & MIDDLEVALE LN,39.08145,-77.046882,2026-05-05,102,3,7.75,19.167,04:58:57,24:08:57,2026-05-09,62.0,18.667
2026_may_current,3554,LAYHILL RD & POST LN,39.08359,-77.046288,2026-05-05,102,3,8.0,19.167,04:59:17,24:09:17,2026-05-09,62.0,18.667
2026_may_current,3558,LAYHILL RD & QUEENSGARD RD,39.08741,-77.044853,2026-05-05,102,3,8.0,19.167,05:00:00,24:10:00,2026-05-09,62.0,18.667
2026_may_current,4696,OLD GEORGETOWN RD & GRAND PARK AVE,39.048985,-77.117598,2026-05-05,102,3,7.5,20.734,04:38:21,25:22:24,2026-05-09,64.0,18.791
2026_may_current,8409,ROCK SPRING DR & @6550,39.026897,-77.134835,2026-05-05,102,3,7.25,20.0,04:27:21,24:27:21,2026-05-09,60.0,18.667
2026_may_current,8408,ROCK SPRING DR & FERNWOOD RD,39.025605,-77.13642,2026-05-05,102,3,7.25,20.0,04:26:49,24:26:49,2026-05-09,60.0,18.667
2026_may_current,30251,ROCKVILLE - CHOKE CHERRY CROSSING & CHOKE CHERRY ROAD,39.114537,-77.185973,2026-05-05,102,2,7.75,18.45,05:07:00,23:34:00,2026-05-09,48.0,14.517
2026_may_current,5996,SHADY GROVE CORPORATE CENTER & CORPORATE BLVD,39.107362,-77.189751,2026-05-05,102,2,7.75,18.45,05:08:28,23:35:28,2026-05-09,48.0,14.517
2026_may_current,3416,E JEFFERSON ST & EXECUTIVE BLVD,39.049798,-77.126263,2026-05-05,101,3,7.5,20.033,05:37:43,25:39:43,2026-05-09,65.0,18.7
2026_may_current,3414,E JEFFERSON ST & JOSIAH HENSON PKWY,39.051923,-77.126385,2026-05-05,101,3,7.5,20.033,05:37:00,25:39:00,2026-05-09,65.0,18.7
2026_may_current,2040,EXECUTIVE BLVD & @6006,39.048653,-77.121738,2026-05-05,101,3,7.5,20.034,05:39:06,25:41:09,2026-05-09,65.0,18.7
2026_may_current,2038,EXECUTIVE BLVD & JEFFERSON ST,39.048514,-77.12481,2026-05-05,101,3,7.5,20.034,05:38:18,25:40:21,2026-05-09,65.0,18.7
2026_may_current,4694,OLD GEORGETOWN RD & GRAND PARK AVE,39.04886,-77.117127,2026-05-05,101,3,7.5,20.034,05:40:28,25:42:30,2026-05-09,65.0,18.7
2026_may_current,5954,SHADY GROVE CORPORATE CENTER & CORPORATE BLVD,39.107317,-77.189392,2026-05-05,101,2,8.0,18.773,05:19:00,24:05:22,2026-05-09,48.0,14.974
2026_may_current,6112,SOMERVILLE DR & REDLAND RD,39.117331,-77.165183,2026-05-05,101,3,7.0,19.881,04:54:14,24:47:04,2026-05-09,58.0,19.197
2026_may_current,9002,CARROLL AVE & GRANT AVE,38.977925,-77.006496,2026-05-05,100,3,7.25,20.156,04:28:57,24:38:19,2026-05-09,81.0,19.5
2026_may_current,6820,VEIRS MILL RD & OKINAWA AVE,39.076442,-77.121476,2026-05-05,100,2,7.25,20.883,05:06:57,25:59:57,2026-05-09,69.0,20.454
2026_may_current,2472,HUNGERFORD DR & MANNAKEE ST,39.097126,-77.153226,2026-05-05,99,2,6.75,19.717,05:12:04,24:55:04,2026-05-09,78.0,18.852
2026_may_current,2474,HUNGERFORD DR & N CAMPUS DR,39.100336,-77.154417,2026-05-05,99,2,6.75,19.717,05:12:48,24:55:48,2026-05-09,78.0,18.854
2026_may_current,6060,SLIGO AVE & SCHRIDER ST,38.991265,-77.014113,2026-05-05,99,2,7.0,20.117,04:49:06,24:56:06,2026-05-09,86.0,19.641
2026_may_current,6058,SLIGO AVE & VALLEY ST,38.991415,-77.01239,2026-05-05,99,2,7.0,20.117,04:48:39,24:55:39,2026-05-09,86.0,19.64
2026_may_current,2700,FRIENDSHIP HEIGHTS STATION & BAY F,38.961621,-77.085439,2026-05-05,98,2,7.5,18.933,05:10:00,24:06:00,2026-05-09,57.0,16.317
2026_may_current,17452,KINGSVIEW PARK & RIDE & CLOPPER RD,39.161072,-77.281121,2026-05-05,98,3,7.0,16.1,04:45:00,20:51:00,2026-05-09,74.0,14.033
2026_may_current,5584,ROCKVILLE PIKE & EDMONSTON DR,39.073665,-77.134915,2026-05-05,98,2,7.75,19.65,05:10:00,24:49:00,2026-05-09,41.0,18.833
2026_may_current,5594,ROCKVILLE PIKE & HALPINE RD,39.06118,-77.123632,2026-05-05,98,2,7.75,19.65,05:16:32,24:55:32,2026-05-09,41.0,18.833
2026_may_current,5590,ROCKVILLE PIKE & TEMPLETON PL,39.067092,-77.128541,2026-05-05,98,2,7.75,19.65,05:12:08,24:51:08,2026-05-09,41.0,18.833
2026_may_current,5626,ROCKVILLE PIKE & TUCKERMAN LN,39.030193,-77.105066,2026-05-05,98,2,7.5,19.647,05:28:28,25:07:17,2026-05-09,41.0,18.85
2026_may_current,17609,SILVER SPRING STATION & BAY 106,38.99373,-77.030286,2026-05-05,98,2,7.25,18.667,05:10:00,23:50:00,2026-05-09,57.0,16.683
2026_may_current,2672,HUNGERFORD DR & MANNAKEE ST,39.09691,-77.153511,2026-05-05,97,2,6.25,19.869,04:59:35,24:51:44,2026-05-09,77.0,19.186
2026_may_current,2670,HUNGERFORD DR & N CAMPUS DR,39.100466,-77.154808,2026-05-05,97,2,6.25,19.871,04:58:46,24:51:01,2026-05-09,77.0,19.188
2026_may_current,30126,BURNT MILLS SOUTHBOUND &,39.031582,-77.004601,2026-05-05,96,1,7.0,19.21,05:23:18,24:35:53,2026-05-09,76.0,18.767
2026_may_current,30122,FENTON ST SOUTHBOUND &,38.997915,-77.026976,2026-05-05,96,1,6.75,19.233,05:31:26,24:45:26,2026-05-09,76.0,18.78
2026_may_current,30124,FOUR CORNERS SOUTHBOUND &,39.021157,-77.01231,2026-05-05,96,1,6.75,19.233,05:25:00,24:39:00,2026-05-09,76.0,18.767
2026_may_current,17605,SILVER SPRING STATION & BAY 112,38.993419,-77.029749,2026-05-05,96,2,7.0,20.033,04:54:00,24:56:00,2026-05-09,64.0,19.217
2026_may_current,30132,TECH RD SOUTHBOUND &,39.058486,-76.968079,2026-05-05,96,1,7.0,19.133,05:18:00,24:26:00,2026-05-09,76.0,18.75
2026_may_current,30125,BURNT MILLS NORTHBOUND &,39.031339,-77.00444,2026-05-05,95,1,6.75,19.192,05:33:57,24:45:27,2026-05-09,76.0,18.775
2026_may_current,30121,FENTON ST NORTHBOUND &,38.997169,-77.027297,2026-05-05,95,1,6.75,19.129,05:26:46,24:34:32,2026-05-09,76.0,18.754
2026_may_current,30123,FOUR CORNERS NORTHBOUND &,39.018655,-77.014048,2026-05-05,95,1,7.0,19.167,05:32:00,24:42:00,2026-05-09,76.0,18.767
2026_may_current,17486,SILVER SPRING STATION & BAY 226,38.993786,-77.030091,2026-05-05,95,1,6.5,20.033,04:59:00,25:01:00,2026-05-09,74.0,19.6
2026_may_current,30131,TECH RD NORTHBOUND &,39.058135,-76.967771,2026-05-05,95,1,6.75,19.267,05:39:00,24:55:00,2026-05-09,76.0,18.783
2026_may_current,1218,CONGRESSIONAL LN & JEFFERSON ST,39.061009,-77.130374,2026-05-05,94,1,7.0,20.0,04:46:58,24:46:58,2026-05-09,69.0,18.896
2026_may_current,1220,CONGRESSIONAL LN & ROLLINS AVE,39.058691,-77.130411,2026-05-05,94,1,7.0,20.0,04:47:48,24:47:48,2026-05-09,69.0,18.899
2026_may_current,9224,E JEFFERSON ST & CONGRESSIONAL LN,39.062074,-77.128784,2026-05-05,94,1,7.0,20.0,04:46:19,24:46:19,2026-05-09,69.0,18.893
2026_may_current,9222,E JEFFERSON ST & HALPINE RD,39.060435,-77.12745,2026-05-05,94,1,7.0,20.0,04:45:38,24:45:38,2026-05-09,69.0,18.89
2026_may_current,17621,MONTGOMERY MALL TRANSIT CENTER & BAY B,39.026,-77.142684,2026-05-05,94,1,6.25,20.433,04:25:00,24:51:00,2026-05-09,69.0,19.1
2026_may_current,5566,ROCKVILLE PIKE & EDMONSTON DR,39.074744,-77.135873,2026-05-05,94,2,7.75,19.967,05:45:58,25:44:00,2026-05-09,41.0,18.833
2026_may_current,5524,ROCKVILLE PIKE & GROSVENOR STATION,39.028256,-77.103632,2026-05-05,94,2,8.0,19.928,05:35:19,25:31:00,2026-05-09,41.0,18.833
2026_may_current,5556,ROCKVILLE PIKE & HALPINE RD,39.062236,-77.124163,2026-05-05,94,2,8.0,19.967,05:42:36,25:40:36,2026-05-09,41.0,18.833
2026_may_current,5560,ROCKVILLE PIKE & TEMPLETON PL,39.067248,-77.128311,2026-05-05,94,2,8.0,19.967,05:43:54,25:41:54,2026-05-09,41.0,18.833
2026_may_current,6580,TWINBROOK STATION & BAY C,39.062016,-77.119799,2026-05-05,94,1,6.75,20.0,04:56:00,24:56:00,2026-05-09,69.0,19.117
2026_may_current,1104,COLESVILLE RD & DALE DR,39.005069,-77.022862,2026-05-05,93,5,7.5,18.013,04:49:40,22:50:28,2026-05-09,47.0,16.013
2026_may_current,4598,NORBECK RD & AVERY RD,39.092839,-77.123389,2026-05-05,93,3,6.25,19.345,05:39:20,25:00:02,2026-05-09,56.0,16.458
2026_may_current,4596,NORBECK RD & BALTIMORE RD,39.095474,-77.112267,2026-05-05,93,3,6.25,19.349,05:37:34,24:58:29,2026-05-09,56.0,16.453
2026_may_current,5230,REDLAND RD & CRABBS BRANCH WAY,39.120658,-77.159004,2026-05-05,93,3,5.25,20.675,04:53:24,25:33:53,2026-05-09,67.0,19.043
2026_may_current,5614,ROCKVILLE PIKE & EXECUTIVE BLVD,39.043127,-77.11123,2026-05-05,93,2,5.5,20.369,05:23:00,25:45:07,2026-05-09,71.0,19.372
2026_may_current,5620,ROCKVILLE PIKE & HILLERY WAY,39.039038,-77.109156,2026-05-05,93,2,5.5,20.37,05:23:59,25:46:12,2026-05-09,71.0,19.377
2026_may_current,5612,ROCKVILLE PIKE & NICHOLSON LN,39.044985,-77.112068,2026-05-05,93,2,5.5,20.368,05:22:34,25:44:38,2026-05-09,71.0,19.37
2026_may_current,5622,ROCKVILLE PIKE & WICKSHIRE WAY,39.038021,-77.108638,2026-05-05,93,2,5.5,20.371,05:24:13,25:46:28,2026-05-09,71.0,19.378
2026_may_current,5652,ROCKVILLE STATION & BAY L,39.085351,-77.145954,2026-05-05,93,3,8.0,15.083,05:35:00,20:40:00,2026-05-09,56.0,13.917
2026_may_current,14972,TRAVILLE TRANSIT CENTER & BAY A,39.092743,-77.202411,2026-05-05,93,3,7.25,18.667,05:15:00,23:55:00,2026-05-09,44.0,14.65
2026_may_current,8008,FREDERICK RD & GERMANTOWN RD,39.192734,-77.242693,2026-05-05,92,2,6.75,19.712,05:47:43,25:30:27,2026-05-09,59.0,18.867
2026_may_current,2550,FREDERICK RD & NEELSVILLE CHURCH RD,39.194333,-77.243437,2026-05-05,92,2,6.75,19.716,05:47:54,25:30:50,2026-05-09,59.0,18.867
2026_may_current,7958,GERMANTOWN RD & GOLDENROD LN,39.18888,-77.251532,2026-05-05,92,2,6.25,20.865,04:46:26,25:38:20,2026-05-09,59.0,18.867
2026_may_current,4636,GERMANTOWN RD & OBSERVATION DR,39.190622,-77.248598,2026-05-05,92,2,6.25,20.862,04:46:11,25:37:53,2026-05-09,59.0,18.867
2026_may_current,4556,NORBECK RD & AVERY RD,39.092502,-77.123285,2026-05-05,92,3,6.75,18.953,05:09:05,24:06:15,2026-05-09,55.0,16.0
2026_may_current,4558,NORBECK RD & BALTIMORE RD,39.094986,-77.112802,2026-05-05,92,3,6.75,18.96,05:10:28,24:08:03,2026-05-09,55.0,16.0
2026_may_current,17398,OBSERVATION DR & @20457 (SENECA MEADOWS CORP CTR),39.196319,-77.255245,2026-05-05,92,2,6.25,20.81,04:45:20,25:33:56,2026-05-09,59.0,18.867
2026_may_current,8846,OBSERVATION DR & BOLAND FARM RD,39.193534,-77.248882,2026-05-05,92,2,6.25,20.825,04:45:53,25:35:24,2026-05-09,59.0,18.867
2026_may_current,8848,OBSERVATION DR & OBSERVATION CT,39.192541,-77.248206,2026-05-05,92,2,6.25,20.828,04:45:59,25:35:40,2026-05-09,59.0,18.867
2026_may_current,9320,OBSERVATION DR & PANTHER RIDGE DR,39.194361,-77.250992,2026-05-05,92,2,6.25,20.821,04:45:43,25:34:58,2026-05-09,59.0,18.867
2026_may_current,5534,ROCKVILLE PIKE & BETH MED PRK DR,39.039224,-77.108894,2026-05-05,92,2,5.25,20.192,05:21:39,25:33:10,2026-05-09,71.0,18.833
2026_may_current,5532,ROCKVILLE PIKE & FLANDERS AVE,39.038275,-77.108412,2026-05-05,92,2,5.25,20.193,05:21:24,25:32:59,2026-05-09,71.0,18.833
2026_may_current,5538,ROCKVILLE PIKE & NICHOLSON LN,39.043692,-77.111043,2026-05-05,92,2,5.25,20.188,05:22:48,25:34:03,2026-05-09,71.0,18.833
2026_may_current,5540,ROCKVILLE PIKE & NICHOLSON LN,39.045447,-77.111861,2026-05-05,92,2,5.25,20.186,05:23:15,25:34:24,2026-05-09,71.0,18.833
2026_may_current,5530,ROCKVILLE PIKE & STRATHMORE AVE,39.03541,-77.106963,2026-05-05,92,2,5.5,20.196,05:20:39,25:32:25,2026-05-09,71.0,18.833
2026_may_current,14635,VEIRS MILL RD & @12701,39.064865,-77.097383,2026-05-05,92,1,6.0,21.467,04:38:24,26:06:24,2026-05-09,70.0,20.95
2026_may_current,14636,VEIRS MILL RD & ARBUTUS AVE,39.06701,-77.100909,2026-05-05,92,1,6.0,21.467,04:39:00,26:07:00,2026-05-09,70.0,20.95
2026_may_current,14640,VEIRS MILL RD & ATLANTIC AVE,39.075261,-77.115985,2026-05-05,92,1,6.0,21.467,04:41:39,26:09:39,2026-05-09,70.0,20.95
2026_may_current,14644,VEIRS MILL RD & BROADWOOD DR,39.07734,-77.124098,2026-05-05,92,1,5.75,21.467,04:42:56,26:10:56,2026-05-09,70.0,20.95
2026_may_current,14645,VEIRS MILL RD & CLAGETT DR,39.078165,-77.127846,2026-05-05,92,1,5.75,21.467,04:43:31,26:11:31,2026-05-09,70.0,20.95
2026_may_current,14649,VEIRS MILL RD & DODGE ST,39.081031,-77.143327,2026-05-05,92,1,6.0,21.467,04:45:56,26:13:56,2026-05-09,70.0,20.95
2026_may_current,14646,VEIRS MILL RD & EDMONSTON DR,39.078658,-77.13085,2026-05-05,92,1,5.75,21.467,04:43:59,26:11:59,2026-05-09,70.0,20.95
2026_may_current,14648,VEIRS MILL RD & FIRST ST,39.079752,-77.137013,2026-05-05,92,1,5.75,21.467,04:44:56,26:12:56,2026-05-09,70.0,20.95
2026_may_current,14639,VEIRS MILL RD & MEADOW HALL DR,39.074364,-77.113525,2026-05-05,92,1,6.0,21.467,04:41:15,26:09:15,2026-05-09,70.0,20.95
2026_may_current,14642,VEIRS MILL RD & NIMITZ AVE,39.076107,-77.11925,2026-05-05,92,1,6.0,21.467,04:42:10,26:10:10,2026-05-09,70.0,20.95
2026_may_current,14643,VEIRS MILL RD & OKINAWA AVE,39.076714,-77.1217,2026-05-05,92,1,5.75,21.467,04:42:33,26:10:33,2026-05-09,70.0,20.95
2026_may_current,14633,VEIRS MILL RD & PARKLAND DR,39.061857,-77.092219,2026-05-05,92,1,5.75,21.467,04:37:33,26:05:33,2026-05-09,70.0,20.95
2026_may_current,14634,VEIRS MILL RD & ROBINDALE DR,39.063414,-77.094982,2026-05-05,92,1,6.0,21.467,04:38:00,26:06:00,2026-05-09,70.0,20.95
2026_may_current,14638,VEIRS MILL RD & TWINBROOK PKWY,39.073696,-77.112121,2026-05-05,92,1,6.0,21.467,04:41:00,26:09:00,2026-05-09,70.0,20.95
2026_may_current,14647,VEIRS MILL RD & WOODBURN RD,39.079329,-77.134803,2026-05-05,92,1,5.75,21.467,04:44:36,26:12:36,2026-05-09,70.0,20.95
2026_may_current,1282,CONNECTICUT AVE & KNOWLES AVE,39.028134,-77.076243,2026-05-05,91,3,6.25,20.367,05:31:00,25:53:00,2026-05-09,59.0,18.95
2026_may_current,2892,GERMANTOWN RD & GOLDENROD LN,39.188651,-77.251261,2026-05-05,91,2,6.75,19.927,04:16:51,24:12:28,2026-05-09,58.0,19.167
2026_may_current,3512,KNOWLES AVE & CONNECTICUT AVE,39.027556,-77.077393,2026-05-05,91,3,6.25,20.368,05:30:35,25:52:38,2026-05-09,59.0,18.951
2026_may_current,14656,VEIRS MILL RD & @12704,39.064531,-77.09745,2026-05-05,91,1,6.0,20.866,05:12:00,26:03:59,2026-05-09,69.0,20.433
2026_may_current,14651,VEIRS MILL RD & @1907,39.075429,-77.117544,2026-05-05,91,1,6.0,20.883,05:07:42,26:00:42,2026-05-09,69.0,20.452
2026_may_current,14654,VEIRS MILL RD & ASPEN HILL RD,39.068828,-77.104656,2026-05-05,91,1,6.0,20.875,05:10:30,26:03:00,2026-05-09,69.0,20.442
2026_may_current,14652,VEIRS MILL RD & ATLANTIC AVE,39.074976,-77.11596,2026-05-05,91,1,6.0,20.883,05:08:00,26:01:00,2026-05-09,69.0,20.452
2026_may_current,14664,VEIRS MILL RD & BROADWOOD DR,39.077092,-77.12395,2026-05-05,91,1,6.0,20.883,05:06:07,25:59:07,2026-05-09,69.0,20.456
2026_may_current,14663,VEIRS MILL RD & CLAGETT DR,39.07802,-77.128227,2026-05-05,91,1,6.0,20.883,05:04:30,25:57:30,2026-05-09,69.0,20.459
2026_may_current,14659,VEIRS MILL RD & DODGE ST,39.080918,-77.143966,2026-05-05,91,1,6.0,20.883,05:02:41,25:55:41,2026-05-09,69.0,20.463
2026_may_current,14662,VEIRS MILL RD & EDMONSTON DR,39.078396,-77.130564,2026-05-05,91,1,6.0,20.883,05:03:58,25:56:58,2026-05-09,69.0,20.46
2026_may_current,14658,VEIRS MILL RD & GAYNOR RD,39.061594,-77.09238,2026-05-05,91,1,6.0,20.861,05:13:02,26:04:40,2026-05-09,69.0,20.427
2026_may_current,14653,VEIRS MILL RD & MEADOW HALL DR,39.074299,-77.114012,2026-05-05,91,1,6.0,20.883,05:08:23,26:01:23,2026-05-09,69.0,20.451
2026_may_current,14655,VEIRS MILL RD & PARKLAWN CEMETERY,39.066787,-77.101186,2026-05-05,91,1,6.0,20.871,05:11:13,26:03:28,2026-05-09,69.0,20.438
2026_may_current,14657,VEIRS MILL RD & ROBINDALE DR,39.063154,-77.095033,2026-05-05,91,1,6.0,20.864,05:12:29,26:04:18,2026-05-09,69.0,20.43
2026_may_current,14661,VEIRS MILL RD & WOODBURN RD,39.079093,-77.134621,2026-05-05,91,1,6.0,20.883,05:03:54,25:56:54,2026-05-09,69.0,20.461
2026_may_current,7042,WATKINS MILL RD & CENTERWAY RD,39.17274,-77.20821,2026-05-05,91,3,6.0,21.161,04:52:27,26:02:08,2026-05-09,57.0,18.97
2026_may_current,5656,ROCKVILLE STATION & BAY C,39.084185,-77.146435,2026-05-05,90,1,9.5,14.483,05:30:00,19:59:00,,,
2026_may_current,284,BEL PRE RD & PEARTREE LN,39.091315,-77.0688,2026-05-05,89,2,6.5,19.983,05:14:29,25:13:29,2026-05-09,61.0,19.409
2026_may_current,286,BEL PRE RD & WEEPING WILLOW DR,39.091259,-77.066052,2026-05-05,89,2,6.5,19.983,05:14:57,25:13:57,2026-05-09,61.0,19.409
2026_may_current,1392,CONNECTICUT AVE & HOWARD AVE,39.028445,-77.076464,2026-05-05,89,3,6.25,20.049,05:07:27,25:10:24,2026-05-09,59.0,18.317
2026_may_current,3514,KNOWLES AVE & DETRICK AVE,39.027771,-77.07784,2026-05-05,89,3,6.25,20.05,05:08:00,25:11:00,2026-05-09,59.0,18.317
2026_may_current,8070,CLOPPER RD & LIBERTY MILL RD,39.161761,-77.280547,2026-05-05,88,4,5.75,19.564,04:51:28,24:25:20,2026-05-09,64.0,16.358
2026_may_current,8274,MUNCASTER MILL RD & @7412 (FLOWER HILL CHURCH),39.152341,-77.151509,2026-05-05,88,3,5.75,18.889,04:46:31,23:39:53,2026-05-09,59.0,17.533
2026_may_current,4398,MUNCASTER MILL RD & IVY OAK DR,39.156996,-77.15777,2026-05-05,88,3,5.75,18.898,04:44:51,23:38:43,2026-05-09,59.0,17.533
2026_may_current,4400,MUNCASTER MILL RD & LAYTONIA DR,39.153745,-77.153774,2026-05-05,88,3,5.75,18.892,04:45:58,23:39:30,2026-05-09,59.0,17.533
2026_may_current,4402,MUNCASTER MILL RD & MILLER FALL RD,39.150906,-77.149529,2026-05-05,88,3,5.75,18.887,04:47:02,23:40:15,2026-05-09,59.0,17.533
2026_may_current,7956,MUNCASTER MILL RD & SHADY GROVE RD,39.149039,-77.147569,2026-05-05,88,3,6.0,18.884,04:47:37,23:40:40,2026-05-09,59.0,17.533
2026_may_current,4396,MUNCASTER MILL RD & WOODFIELD RD,39.158353,-77.159791,2026-05-05,88,3,5.75,18.9,04:44:21,23:38:22,2026-05-09,59.0,17.533
2026_may_current,5650,ROCKVILLE STATION & BAY K,39.085164,-77.145979,2026-05-05,88,1,5.0,20.117,05:20:00,25:27:00,2026-05-09,66.0,19.15
2026_may_current,4196,S CAMPUS DR & CAMPUS DR,39.096492,-77.157748,2026-05-05,88,1,9.75,14.366,05:35:38,19:57:36,,,
2026_may_current,6014,SHADY GROVE STATION & BAY K,39.119688,-77.164833,2026-05-05,88,1,5.0,20.283,05:19:00,25:36:00,2026-05-09,66.0,19.0
2026_may_current,296,BEL PRE RD & HOMECREST RD,39.091494,-77.0633,2026-05-05,87,2,6.0,19.142,05:08:56,24:17:27,2026-05-09,62.0,18.675
2026_may_current,298,BEL PRE RD & WEEPING WILLOW DR,39.091477,-77.065834,2026-05-05,87,2,6.0,19.141,05:09:26,24:17:54,2026-05-09,62.0,18.676
2026_may_current,8228,E JEFFERSON ST & CALIFORNIA CIR,39.055177,-77.125998,2026-05-05,87,2,6.0,20.714,04:43:40,25:26:30,2026-05-09,64.0,18.783
2026_may_current,3396,E JEFFERSON ST & FEDERAL PLAZA,39.057002,-77.126161,2026-05-05,87,2,6.0,20.711,04:44:20,25:27:00,2026-05-09,64.0,18.783
2026_may_current,3394,E JEFFERSON ST & MONTROSE RD,39.053234,-77.125945,2026-05-05,87,2,6.0,20.717,04:43:00,25:26:00,2026-05-09,64.0,18.783
2026_may_current,3398,E JEFFERSON ST & ROLLINS AVE,39.059257,-77.12647,2026-05-05,87,2,6.0,20.708,04:45:08,25:27:36,2026-05-09,64.0,18.846
2026_may_current,2164,FENTON ST & SILVER SPRING AVE,38.991501,-77.023926,2026-05-05,87,2,5.75,20.115,04:51:22,24:58:16,2026-05-09,76.0,19.618
2026_may_current,2166,FENTON ST & THAYER AVE,38.992877,-77.024012,2026-05-05,87,2,5.75,20.114,04:51:39,24:58:29,2026-05-09,76.0,19.619
2026_may_current,3212,HALPINE RD & JEFFERSON ST,39.060335,-77.126719,2026-05-05,87,2,6.0,20.636,04:49:49,25:28:00,2026-05-09,64.0,18.846
2026_may_current,3214,HALPINE RD & ROCKVILLE PIKE,39.061484,-77.124452,2026-05-05,87,2,6.0,20.633,04:50:34,25:28:34,2026-05-09,64.0,18.846
2026_may_current,3704,LOFSTRAND LN & SOUTHLAWN DR,39.093908,-77.14075,2026-05-05,87,2,5.0,19.848,05:32:39,25:23:31,2026-05-09,62.0,18.567
2026_may_current,4898,PINEY BRANCH RD & SILVER SPRING AVE,38.992585,-77.009537,2026-05-05,87,3,6.25,20.15,05:13:59,25:23:00,2026-05-09,69.0,19.567
2026_may_current,6134,SOUTHLAWN LN & N HORNERS LN,39.093357,-77.143333,2026-05-05,87,2,5.0,19.846,05:33:07,25:23:53,2026-05-09,62.0,18.567
2026_may_current,6318,TAFT ST & FIRST ST,39.093637,-77.13462,2026-05-05,87,2,5.0,19.853,05:31:23,25:22:34,2026-05-09,62.0,18.568
2026_may_current,6316,TAFT ST & GUDE DR,39.094045,-77.133052,2026-05-05,87,2,5.0,19.855,05:31:04,25:22:22,2026-05-09,62.0,18.569
2026_may_current,6320,TAFT ST & LOFSTRAND LN,39.094062,-77.137275,2026-05-05,87,2,5.0,19.85,05:32:00,25:23:00,2026-05-09,62.0,18.567
2026_may_current,3410,E JEFFERSON ST & LANDOW HOUSE,39.056433,-77.126354,2026-05-05,86,2,6.0,20.037,05:35:31,25:37:45,2026-05-09,65.0,18.695
2026_may_current,3412,E JEFFERSON ST & MONTROSE RD,39.054071,-77.126202,2026-05-05,86,2,6.0,20.036,05:36:14,25:38:22,2026-05-09,65.0,18.697
2026_may_current,3222,HALPINE RD & CONGRESSIONAL PLAZA,39.060768,-77.126336,2026-05-05,86,2,6.0,20.081,05:31:37,25:36:30,2026-05-09,65.0,18.682
2026_may_current,3218,HALPINE RD & ROCKVILLE PIKE,39.062182,-77.123581,2026-05-05,86,2,6.0,20.083,05:30:50,25:35:50,2026-05-09,65.0,18.679
2026_may_current,3220,HALPINE RD & ROCKVILLE PIKE,39.061605,-77.12475,2026-05-05,86,2,6.0,20.082,05:31:10,25:36:07,2026-05-09,65.0,18.681
2026_may_current,30010,LAKEFOREST TRANSIT CENTER & LOST KNIFE AVE,39.153026,-77.199382,2026-05-05,86,1,9.75,14.783,05:30:00,20:17:00,,,
2026_may_current,3702,LOFSTRAND LN & SOUTHLAWN LN,39.093679,-77.140442,2026-05-05,86,2,5.0,20.281,05:07:28,25:24:19,2026-05-09,61.0,19.0
2026_may_current,17101,MUNCASTER MILL RD & @7503 (COVENANT LIFE CHURCH),39.152399,-77.151256,2026-05-05,86,3,5.5,19.244,04:54:54,24:09:34,2026-05-09,57.0,17.004
2026_may_current,4418,MUNCASTER MILL RD & EMORY ST,39.158251,-77.159335,2026-05-05,86,3,5.5,19.252,04:56:00,24:11:09,2026-05-09,57.0,17.009
2026_may_current,4416,MUNCASTER MILL RD & IVY OAK DR,39.157114,-77.15773,2026-05-05,86,3,5.5,19.252,04:55:44,24:10:50,2026-05-09,57.0,17.008
2026_may_current,8780,MUNCASTER MILL RD & LAYTONIA DR,39.153434,-77.153056,2026-05-05,86,3,5.5,19.246,04:55:06,24:09:53,2026-05-09,57.0,17.005
2026_may_current,4412,MUNCASTER MILL RD & MILLER FALL RD,39.151713,-77.15033,2026-05-05,86,3,5.5,19.243,04:54:47,24:09:23,2026-05-09,57.0,17.004
2026_may_current,7954,MUNCASTER MILL RD & SHADY GROVE RD,39.149272,-77.147401,2026-05-05,86,3,5.5,19.24,04:54:23,24:08:47,2026-05-09,57.0,17.002
2026_may_current,6132,SOUTHLAWN LN & N HORNERS LN,39.093342,-77.14319,2026-05-05,86,2,5.0,20.28,05:07:02,25:23:49,2026-05-09,61.0,19.0
2026_may_current,6312,TAFT ST & FIRST ST,39.093563,-77.134524,2026-05-05,86,2,4.75,20.284,05:08:23,25:25:27,2026-05-09,61.0,19.0
2026_may_current,6310,TAFT ST & LOFSTRAND LN,39.093922,-77.137332,2026-05-05,86,2,5.0,20.284,05:07:58,25:25:00,2026-05-09,61.0,19.0
2026_may_current,2182,FENTON ST & SILVER SPRING AVE,38.99119,-77.024124,2026-05-05,85,2,5.5,20.099,05:12:18,25:18:14,2026-05-09,74.0,19.545
2026_may_current,5192,REDLAND RD & CRABBS BRANCH WAY,39.120767,-77.158642,2026-05-05,85,2,5.0,20.209,05:02:18,25:14:49,2026-05-09,66.0,18.583
2026_may_current,5188,REDLAND RD & SOMERVILLE DR,39.11737,-77.164344,2026-05-05,85,2,5.0,20.204,05:01:14,25:13:30,2026-05-09,66.0,18.583
2026_may_current,5190,REDLAND RD & YELLOWSTONE WAY,39.119111,-77.161296,2026-05-05,85,2,5.0,20.207,05:01:48,25:14:12,2026-05-09,66.0,18.583
2026_may_current,5232,REDLAND RD & YELLOWSTONE WAY,39.119253,-77.161398,2026-05-05,85,2,4.75,20.678,04:53:47,25:34:26,2026-05-09,67.0,19.045
2026_may_current,6328,TAKOMA STATION & BAY G,38.97544,-77.016971,2026-05-05,85,3,5.75,20.083,05:42:00,25:47:00,2026-05-09,70.0,19.583
2026_may_current,6528,TWINBROOK PKWY & PARKLAWN DR,39.062213,-77.116313,2026-05-05,85,3,6.75,19.996,04:57:21,24:57:07,2026-05-09,53.0,18.687
2026_may_current,6968,WASHINGTON GROVE LN & MORNING VIEW DR,39.147998,-77.168525,2026-05-05,85,3,5.75,18.919,04:40:30,23:35:37,2026-05-09,58.0,17.531
2026_may_current,8218,WHEATON STATION & BAY G,39.038,-77.051672,2026-05-05,85,1,5.5,19.333,05:15:00,24:35:00,2026-05-09,57.0,15.833
2026_may_current,1906,EAST WEST HWY & @1704 (CHEVY CHASE CREST),38.995244,-77.038399,2026-05-05,84,3,5.75,19.076,04:42:41,23:47:15,2026-05-09,54.0,15.855
2026_may_current,1908,EAST WEST HWY & CAREY LN,38.994574,-77.037235,2026-05-05,84,3,5.75,19.075,04:42:59,23:47:28,2026-05-09,54.0,15.856
2026_may_current,1904,EAST WEST HWY & ROSEMARY HILLS DR,38.99535,-77.042345,2026-05-05,84,3,6.0,19.081,04:41:40,23:46:30,2026-05-09,54.0,15.852
2026_may_current,1902,EAST WEST HWY & WASHINGTON AVE,38.994789,-77.045237,2026-05-05,84,3,6.0,19.083,04:41:00,23:46:00,2026-05-09,54.0,15.85
2026_may_current,1108,COLESVILLE RD & FRANKLIN AVE,39.008512,-77.018543,2026-05-05,83,4,6.0,18.017,04:51:16,22:52:16,2026-05-09,47.0,16.016
2026_may_current,1106,COLESVILLE RD & SILGO CREEK PKWY,39.007818,-77.019623,2026-05-05,83,4,6.0,18.017,04:51:00,22:52:00,2026-05-09,47.0,16.017
2026_may_current,2092,FALLS RD & FALLSMEAD WAY,39.071285,-77.167424,2026-05-05,83,3,6.25,17.928,05:26:45,23:22:24,2026-05-09,62.0,15.833
2026_may_current,2090,FALLS RD & WOOTON PKWY,39.070063,-77.169362,2026-05-05,83,3,6.5,17.926,05:26:25,23:21:57,2026-05-09,62.0,15.833
2026_may_current,4376,MUDDY BRANCH RD & KING JAMES WAY,39.136908,-77.205831,2026-05-05,83,2,4.75,19.967,05:02:00,25:00:00,2026-05-09,59.0,18.583
2026_may_current,6578,TWINBROOK PKWY & PARKLAWN DR,39.06183,-77.116648,2026-05-05,83,3,7.0,19.076,05:25:31,24:30:06,2026-05-09,54.0,18.672
2026_may_current,6976,WASHINGTON GROVE LN & EMORY GROVE RD,39.148634,-77.168021,2026-05-05,83,3,5.25,19.017,05:13:00,24:14:00,2026-05-09,57.0,17.017
2026_may_current,1922,EAST WEST HWY & @1703,38.996221,-77.0408,2026-05-05,82,3,6.0,18.917,04:52:41,23:47:41,2026-05-09,55.0,16.333
2026_may_current,1920,EAST WEST HWY & CAREY LN,38.99541,-77.038255,2026-05-05,82,3,6.0,18.917,04:52:04,23:47:04,2026-05-09,55.0,16.333
2026_may_current,1924,EAST WEST HWY & ROSEMARY HILLS DR,38.995661,-77.04214,2026-05-05,82,3,6.0,18.917,04:53:00,23:48:00,2026-05-09,55.0,16.333
2026_may_current,2094,FALLS RD & FALLSMEAD WAY,39.071335,-77.167838,2026-05-05,82,3,6.25,17.631,05:14:57,22:52:47,2026-05-09,61.0,15.356
2026_may_current,4146,MONROE ST & JEFFERSON ST,39.081657,-77.149288,2026-05-05,82,3,6.25,17.945,05:30:40,23:27:21,2026-05-09,53.0,15.811
2026_may_current,4152,MONROE ST & JEFFERSON ST,39.081626,-77.149552,2026-05-05,82,3,6.25,17.592,05:11:24,22:46:55,2026-05-09,52.0,15.337
2026_may_current,4210,MONTGOMERY VILLAGE AVE & CENTER STAGE,39.167822,-77.204862,2026-05-05,82,3,5.25,20.955,05:03:17,26:00:35,2026-05-09,58.0,18.977
2026_may_current,4208,MONTGOMERY VILLAGE AVE & WALKERS CHOICE RD,39.165592,-77.204584,2026-05-05,82,3,5.25,20.953,05:02:57,26:00:07,2026-05-09,58.0,18.979
2026_may_current,4374,MUDDY BRANCH RD & HARMONY HALL RD,39.136897,-77.205482,2026-05-05,82,2,4.75,20.259,05:31:29,25:47:00,2026-05-09,60.0,19.0
2026_may_current,4258,MONTGOMERY VILLAGE AVE & CENTER STAGE,39.168175,-77.205069,2026-05-05,81,3,5.75,19.917,04:52:24,24:47:24,2026-05-09,57.0,18.583
2026_may_current,4260,MONTGOMERY VILLAGE AVE & WALKERS CHOICE RD,39.165563,-77.20493,2026-05-05,81,3,5.75,19.917,04:53:10,24:48:10,2026-05-09,57.0,18.583
2026_may_current,1814,E DIAMOND AVE & GIRARD ST,39.140186,-77.183678,2026-05-05,80,2,4.75,19.395,04:36:47,24:00:29,2026-05-09,61.0,17.521
2026_may_current,1816,E DIAMOND AVE & GIRARD ST,39.139922,-77.182434,2026-05-05,80,2,5.5,19.062,05:14:06,24:17:49,2026-05-09,60.0,17.027
2026_may_current,4664,OLD GEORGETOWN RD & BATTERY LN,38.990682,-77.103855,2026-05-05,80,3,6.0,17.504,05:16:53,22:47:06,2026-05-09,26.0,14.913
2026_may_current,232,BALTIMORE RD & GRANDIN AVE,39.083671,-77.141743,2026-05-05,79,3,6.25,18.525,05:33:32,24:05:03,2026-05-09,46.0,16.05
2026_may_current,230,BALTIMORE RD & HORNERS LN,39.084547,-77.139329,2026-05-05,79,3,6.25,18.529,05:33:02,24:04:46,2026-05-09,46.0,16.05
2026_may_current,228,BALTIMORE RD & TAYLOR AVE,39.084657,-77.137624,2026-05-05,79,3,6.25,18.531,05:32:43,24:04:35,2026-05-09,46.0,16.05
2026_may_current,17256,EDISON PARK DR & @100,39.113322,-77.236397,2026-05-05,79,1,6.5,17.137,05:06:57,22:15:09,,,
2026_may_current,17283,EDISON PARK DR & PARKING LOT DR,39.114506,-77.234565,2026-05-05,79,1,6.5,17.138,05:07:47,22:16:02,,,
2026_may_current,8766,HUNGERFORD DR & @451,39.089179,-77.151307,2026-05-05,79,1,5.75,15.85,05:58:04,21:49:04,2026-05-09,58.0,15.096
2026_may_current,14896,HUNGERFORD DR & @451,39.0894,-77.151887,2026-05-05,79,1,6.0,15.8,06:15:27,22:03:27,2026-05-09,57.0,14.857
2026_may_current,8760,HUNGERFORD DR & BEALL AVE,39.08725,-77.150122,2026-05-05,79,1,6.0,15.8,06:16:11,22:04:11,2026-05-09,57.0,14.855
2026_may_current,8764,HUNGERFORD DR & BEALL AVE,39.087786,-77.150149,2026-05-05,79,1,5.75,15.85,05:57:43,21:48:43,2026-05-09,58.0,15.097
2026_may_current,8768,HUNGERFORD DR & WASHINGTON RD,39.091776,-77.153041,2026-05-05,79,1,5.75,15.85,05:58:42,21:49:42,2026-05-09,58.0,15.093
2026_may_current,8758,HUNGERFORD DR & WASHINGTON ST,39.090953,-77.153044,2026-05-05,79,1,6.0,15.8,06:14:57,22:02:57,2026-05-09,57.0,14.859
2026_may_current,30040,ROCKVILLE STATION & BAY G,39.084999,-77.147865,2026-05-05,79,1,5.75,15.85,05:57:00,21:48:00,2026-05-09,58.0,15.1
2026_may_current,6170,S STONESTREET AVE & CROYDON AVE,39.083884,-77.144075,2026-05-05,79,3,6.25,18.521,05:34:10,24:05:25,2026-05-09,46.0,16.05
2026_may_current,198,BALTIMORE RD & GRANDIN AVE,39.083337,-77.142163,2026-05-05,78,3,6.5,18.003,05:06:10,23:06:21,2026-05-09,46.0,16.0
2026_may_current,200,BALTIMORE RD & HORNERS LN,39.08433,-77.139413,2026-05-05,78,3,6.5,18.004,05:06:32,23:06:47,2026-05-09,46.0,16.0
2026_may_current,202,BALTIMORE RD & TAYLOR AVE,39.084536,-77.138133,2026-05-05,78,3,6.5,18.004,05:06:43,23:06:59,2026-05-09,46.0,16.0
2026_may_current,17541,CLARIDGE RD & CLARIDGE CT,39.051368,-77.066351,2026-05-05,78,2,5.25,17.424,05:04:18,22:29:45,2026-05-09,50.0,14.767
2026_may_current,17540,CLARIDGE RD & PAUL DR,39.049019,-77.068663,2026-05-05,78,2,5.25,17.422,05:03:43,22:29:03,2026-05-09,50.0,14.766
2026_may_current,1330,CONNECTICUT AVE & GEORGIA AVE,39.083931,-77.076913,2026-05-05,78,2,5.0,19.983,05:12:00,25:11:00,2026-05-09,63.0,18.717
2026_may_current,1328,CONNECTICUT AVE & NORTHGATE SC,39.08183,-77.07956,2026-05-05,78,2,5.25,19.983,05:10:29,25:09:29,2026-05-09,63.0,18.717
2026_may_current,4086,E MIDDLE LN & MARYLAND AVE,39.084959,-77.151353,2026-05-05,78,2,4.75,19.867,05:04:41,24:56:41,2026-05-09,67.0,19.183
2026_may_current,6198,S STONESTREET AVE & CROYDON AVE,39.083742,-77.144142,2026-05-05,78,3,6.5,18.002,05:05:49,23:05:57,2026-05-09,46.0,16.0
2026_may_current,7802,DARNESTOWN RD & SHADY GROVE RD,39.092846,-77.195954,2026-05-05,77,3,6.0,16.8,05:17:07,22:05:07,2026-05-09,55.0,15.083
2026_may_current,2958,GLEN MILL RD & MARIAN DR,39.091909,-77.194388,2026-05-05,77,3,6.5,16.709,05:20:45,22:03:19,2026-05-09,54.0,14.276
2026_may_current,2960,GLEN MILL RD & MARIAN DR,39.091529,-77.19452,2026-05-05,77,3,6.0,16.8,05:17:39,22:05:39,2026-05-09,55.0,15.081
2026_may_current,5636,ROCKVILLE PIKE & ALTA VISTA RD,39.012977,-77.098823,2026-05-05,77,2,4.25,19.64,05:31:55,25:10:18,2026-05-09,41.0,18.85
2026_may_current,5514,ROCKVILLE PIKE & BELLEVUE DR,39.012881,-77.098444,2026-05-05,77,2,4.5,19.75,05:42:49,25:27:49,2026-05-09,41.0,18.833
2026_may_current,5512,ROCKVILLE PIKE & BROAD BROOK DR,39.011894,-77.097865,2026-05-05,77,2,4.5,19.75,05:42:37,25:27:37,2026-05-09,41.0,18.833
2026_may_current,5508,ROCKVILLE PIKE & CEDAR LN,39.007036,-77.097331,2026-05-05,77,2,4.5,19.75,05:41:40,25:26:40,2026-05-09,41.0,18.833
2026_may_current,5642,ROCKVILLE PIKE & CEDAR LN,39.007658,-77.097657,2026-05-05,77,2,4.25,19.638,05:32:58,25:11:13,2026-05-09,41.0,18.85
2026_may_current,5638,ROCKVILLE PIKE & ELSMERE AVE,39.011559,-77.098048,2026-05-05,77,2,4.25,19.639,05:32:12,25:10:33,2026-05-09,41.0,18.85
2026_may_current,5510,ROCKVILLE PIKE & LOCUST HILL RD,39.008577,-77.097299,2026-05-05,77,2,4.5,19.75,05:41:58,25:26:58,2026-05-09,41.0,18.833
2026_may_current,5634,ROCKVILLE PIKE & POOKS HILL RD,39.014313,-77.099687,2026-05-05,77,2,4.5,19.64,05:31:38,25:10:03,2026-05-09,41.0,18.85
2026_may_current,5606,ROCKVILLE PIKE & ROSE AVE,39.052016,-77.116143,2026-05-05,77,2,4.5,19.65,05:20:11,24:59:11,2026-05-09,59.0,18.833
2026_may_current,1661,SHADY GROVE RD & DARNESTOWN RD,39.093729,-77.196024,2026-05-05,77,3,6.25,16.711,05:21:20,22:04:01,2026-05-09,54.0,14.278
2026_may_current,6532,TWINBROOK PKWY & ALDERBROOK CT,39.066593,-77.11456,2026-05-05,77,2,5.5,19.991,04:59:05,24:58:34,2026-05-09,53.0,18.692
2026_may_current,6530,TWINBROOK PKWY & ARDENNES AVE,39.063947,-77.115825,2026-05-05,77,2,5.5,19.994,04:58:02,24:57:41,2026-05-09,53.0,18.689
2026_may_current,6534,TWINBROOK PKWY & BESLEY CT,39.067611,-77.114125,2026-05-05,77,2,5.5,19.99,04:59:29,24:58:54,2026-05-09,53.0,18.693
2026_may_current,6536,TWINBROOK PKWY & DOWGATE CT,39.070083,-77.113917,2026-05-05,77,2,5.75,19.988,05:00:24,24:59:40,2026-05-09,53.0,18.696
2026_may_current,6538,TWINBROOK PKWY & VEIRS MILL RD,39.072178,-77.112945,2026-05-05,77,2,6.0,19.985,05:01:16,25:00:23,2026-05-09,53.0,18.698
2026_may_current,8308,WELLER RD & HATHAWAY DR,39.06573,-77.062688,2026-05-05,77,2,5.25,18.345,05:17:48,23:38:30,2026-05-09,59.0,16.917
2026_may_current,7658,WOOTTON PKWY & DUNDEE RD,39.086823,-77.188817,2026-05-05,77,3,6.25,16.704,05:19:20,22:01:36,2026-05-09,54.0,14.271
2026_may_current,7612,WOOTTON PKWY & FAIRWOOD CT,39.085287,-77.187202,2026-05-05,77,3,6.0,16.8,05:19:46,22:07:46,2026-05-09,55.0,15.071
2026_may_current,7604,WOOTTON PKWY & GLEN MILL RD,39.08996,-77.193858,2026-05-05,77,3,6.0,16.8,05:18:02,22:06:02,2026-05-09,55.0,15.079
2026_may_current,7664,WOOTTON PKWY & GLEN MILL RD,39.090001,-77.19372,2026-05-05,77,3,6.25,16.708,05:20:22,22:02:51,2026-05-09,54.0,14.275
2026_may_current,7614,WOOTTON PKWY & HURLEY AVE,39.080714,-77.185614,2026-05-05,77,3,6.0,16.8,05:21:00,22:09:00,2026-05-09,55.0,15.067
2026_may_current,7654,WOOTTON PKWY & HURLEY AVE,39.080854,-77.185557,2026-05-05,77,3,6.25,16.7,05:18:00,22:00:00,2026-05-09,54.0,14.267
2026_may_current,7606,WOOTTON PKWY & KEYNES LN,39.088861,-77.193129,2026-05-05,77,3,6.0,16.8,05:18:19,22:06:19,2026-05-09,55.0,15.078
2026_may_current,7608,WOOTTON PKWY & LINDLEY TERR,39.087483,-77.191495,2026-05-05,77,3,6.0,16.8,05:18:46,22:06:46,2026-05-09,55.0,15.076
2026_may_current,7610,WOOTTON PKWY & LINDLEY TERR,39.086786,-77.189288,2026-05-05,77,3,6.0,16.8,05:19:12,22:07:12,2026-05-09,55.0,15.074
2026_may_current,7660,WOOTTON PKWY & LINDLEY TERR,39.08744,-77.191082,2026-05-05,77,3,6.25,16.706,05:19:42,22:02:03,2026-05-09,54.0,14.272
2026_may_current,7656,WOOTTON PKWY & MCCORMIC RD,39.084965,-77.187045,2026-05-05,77,3,6.25,16.703,05:18:52,22:01:02,2026-05-09,54.0,14.269
2026_may_current,5814,2ND AVE & COLESVILLE RD,38.994989,-77.030608,2026-05-05,76,3,5.25,19.914,05:00:58,24:55:50,2026-05-09,41.0,18.331
2026_may_current,1346,CONNECTICUT AVE & ASPEN HILL RD,39.080975,-77.080414,2026-05-05,76,2,5.25,19.127,05:14:12,24:21:48,2026-05-09,65.0,18.683
2026_may_current,1336,CONNECTICUT AVE & BEL PRE RD,39.091317,-77.070888,2026-05-05,76,2,5.0,19.139,05:10:34,24:18:54,2026-05-09,65.0,18.678
2026_may_current,1342,CONNECTICUT AVE & GEORGIA AVE,39.084611,-77.07587,2026-05-05,76,2,5.25,19.134,05:12:37,24:20:40,2026-05-09,65.0,18.682
2026_may_current,1344,CONNECTICUT AVE & GEORGIA AVE,39.084107,-77.07709,2026-05-05,76,2,5.25,19.133,05:13:00,24:21:00,2026-05-09,65.0,18.683
2026_may_current,1340,CONNECTICUT AVE & GRAND PRE RD,39.08624,-77.074302,2026-05-05,76,2,5.0,19.136,05:12:04,24:20:12,2026-05-09,65.0,18.681
2026_may_current,1338,CONNECTICUT AVE & PEAR TREE CT,39.089738,-77.07175,2026-05-05,76,2,5.0,19.138,05:11:01,24:19:17,2026-05-09,65.0,18.679
2026_may_current,7074,E WAYNE AVE & MANCHESTER RD,38.999583,-77.009992,2026-05-05,76,2,5.25,20.75,04:47:07,25:32:07,2026-05-09,53.0,20.274
2026_may_current,9476,LIFE SCI - EAST & @9630,39.103209,-77.196157,2026-05-05,76,2,6.5,14.2,05:15:00,19:27:00,2026-05-09,26.0,12.483
2026_may_current,4204,MONTGOMERY VILLAGE AVE & LOST KNIFE RD,39.158452,-77.203603,2026-05-05,76,2,4.75,20.936,05:01:45,25:57:55,2026-05-09,58.0,18.987
2026_may_current,5546,ROCKVILLE PIKE & ROSE AVE,39.051167,-77.115143,2026-05-05,76,2,4.5,20.331,05:15:58,25:35:48,2026-05-09,59.0,18.833
2026_may_current,7061,WAYNE AVE & @824,38.996285,-77.022877,2026-05-05,76,2,5.0,20.75,04:42:52,25:27:52,2026-05-09,53.0,20.259
2026_may_current,7060,WAYNE AVE & FENTON ST,38.994792,-77.025331,2026-05-05,76,2,5.0,20.75,04:41:57,25:26:57,2026-05-09,53.0,20.256
2026_may_current,778,CARROLL AVE & CHESTER ST,38.989728,-76.993636,2026-05-05,75,3,4.5,19.26,04:46:50,24:02:26,2026-05-09,48.0,17.5
2026_may_current,786,CARROLL AVE & FLOWER AVE,38.985069,-76.998164,2026-05-05,75,3,4.5,19.267,04:48:00,24:04:00,2026-05-09,48.0,17.5
2026_may_current,17219,CARROLL AVE & GARLAND AVE,38.986231,-76.996305,2026-05-05,75,3,4.25,19.264,04:47:38,24:03:30,2026-05-09,48.0,17.5
2026_may_current,16012,CARROLL AVE & GLENSIDE DR,38.987981,-76.994422,2026-05-05,75,3,4.5,19.262,04:47:12,24:02:55,2026-05-09,48.0,17.5
2026_may_current,776,CARROLL AVE & TAKOMA ACADEMY DRWY,38.992277,-76.99309,2026-05-05,75,3,4.5,19.257,04:46:18,24:01:44,2026-05-09,48.0,17.5
2026_may_current,3862,MAPLE AVE & GRANT AVE,38.981679,-77.009439,2026-05-05,75,3,4.75,19.267,04:52:00,24:08:00,2026-05-09,48.0,17.483
2026_may_current,3856,MAPLE AVE & HILLTOP RD,38.985307,-77.003804,2026-05-05,75,3,4.5,19.267,04:50:18,24:06:18,2026-05-09,48.0,17.491
2026_may_current,3858,MAPLE AVE & LINCOLN AVE,38.983954,-77.005546,2026-05-05,75,3,4.5,19.267,04:50:55,24:06:55,2026-05-09,48.0,17.488
2026_may_current,3860,MAPLE AVE & SHERMAN AVE,38.982944,-77.007243,2026-05-05,75,3,4.5,19.267,04:51:24,24:07:24,2026-05-09,48.0,17.486
2026_may_current,4022,MERRIMAC DR & LOCKNEY AVE,38.992454,-76.992139,2026-05-05,75,3,4.5,19.257,04:46:12,24:01:36,2026-05-09,48.0,17.5
2026_may_current,5482,ROCK SPRING DR & OLD GEORGETOWN RD,39.026536,-77.128123,2026-05-05,75,3,5.0,20.0,04:29:00,24:29:00,2026-05-09,34.0,18.667
2026_may_current,5480,ROCK SPRING DR & ROCKLEDGE DR,39.026616,-77.131166,2026-05-05,75,3,4.75,20.0,04:28:15,24:28:15,2026-05-09,34.0,18.667
2026_may_current,17092,SHADY GROVE RD & MEDICAL CENTER WAY,39.096384,-77.19531,2026-05-05,75,3,5.75,16.8,05:16:11,22:04:11,2026-05-09,52.0,15.013
2026_may_current,7100,WAYNE AVE & FENTON ST,38.995703,-77.024126,2026-05-05,75,2,5.25,20.75,04:32:44,25:17:44,2026-05-09,53.0,20.846
2026_may_current,16080,WAYNE AVE & GEORGIA AVE,38.994785,-77.025744,2026-05-05,75,2,5.0,20.75,04:33:12,25:18:12,2026-05-09,53.0,20.846
2026_may_current,2270,FLEET ST & MARYLAND AVE,39.080859,-77.150688,2026-05-05,74,2,5.25,17.943,05:30:18,23:26:53,2026-05-09,53.0,15.81
2026_may_current,3880,MARYLAND AVE & MONUMENT ST,39.077536,-77.158985,2026-05-05,74,2,5.75,17.936,05:28:38,23:24:48,2026-05-09,53.0,15.803
2026_may_current,3882,MARYLAND AVE & NEW MARK ESPLANADE,39.078706,-77.156374,2026-05-05,74,2,5.75,17.938,05:29:09,23:25:27,2026-05-09,53.0,15.805
2026_may_current,3878,MARYLAND AVE & POTOMAC VALLEY RD,39.076044,-77.162184,2026-05-05,74,2,5.75,17.933,05:28:00,23:24:00,2026-05-09,53.0,15.8
2026_may_current,3884,MARYLAND AVE & WASHINGTON ST,39.08053,-77.152525,2026-05-05,74,2,5.5,17.941,05:29:56,23:26:25,2026-05-09,53.0,15.808
2026_may_current,644,SHADY GROVE MEDICAL CENTER - WEST & MEDICAL CENTER WAY,39.098988,-77.201653,2026-05-05,74,2,4.5,16.917,05:18:00,22:13:00,2026-05-09,41.0,15.959
2026_may_current,652,SHADY GROVE MEDICAL CENTER - WEST & MEDICAL CENTER WAY,39.099144,-77.201872,2026-05-05,74,2,4.75,16.967,05:17:00,22:15:00,2026-05-09,41.0,15.933
2026_may_current,6576,TWINBROOK PKWY & ARDENNES AVE,39.063998,-77.116201,2026-05-05,74,2,5.75,19.081,05:24:52,24:29:43,2026-05-09,54.0,18.674
2026_may_current,6574,TWINBROOK PKWY & HALPINE RD,39.066598,-77.114789,2026-05-05,74,2,5.75,19.086,05:24:01,24:29:12,2026-05-09,54.0,18.677
2026_may_current,6572,TWINBROOK PKWY & PIER DR,39.068183,-77.114274,2026-05-05,74,2,5.75,19.09,05:23:31,24:28:54,2026-05-09,54.0,18.678
2026_may_current,6570,TWINBROOK PKWY & TWINBROOK PARK,39.070451,-77.114067,2026-05-05,74,2,5.75,19.094,05:22:50,24:28:30,2026-05-09,54.0,18.681
2026_may_current,6568,TWINBROOK PKWY & VEIRS MILL RD,39.072956,-77.112541,2026-05-05,74,2,5.75,19.1,05:22:00,24:28:00,2026-05-09,54.0,18.683
2026_may_current,38,AMHERST AVE & UNIVERSITY BLVD,39.040173,-77.048673,2026-05-05,73,4,5.5,18.05,05:04:28,23:07:28,2026-05-09,43.0,16.017
2026_may_current,30152,APRIL LANE NORTHBOUND &,39.045231,-76.981196,2026-05-05,73,1,4.25,18.812,06:02:03,24:50:46,2026-05-09,76.0,18.783
2026_may_current,30133,APRIL LANE SOUTHBOUND &,39.045097,-76.981265,2026-05-05,73,1,3.5,18.976,05:31:40,24:30:15,2026-05-09,76.0,18.762
2026_may_current,764,CARROLL AVE & ANNE ST,38.987663,-76.994554,2026-05-05,73,3,4.25,18.735,05:36:56,24:21:02,2026-05-09,48.0,16.996
2026_may_current,760,CARROLL AVE & FLOWER AVE,38.985002,-76.998025,2026-05-05,73,3,4.5,18.733,05:36:00,24:20:00,2026-05-09,48.0,17.0
2026_may_current,17377,CARROLL AVE & GARLAND AVE,38.986247,-76.996177,2026-05-05,73,3,4.5,18.734,05:36:28,24:20:31,2026-05-09,48.0,16.998
2026_may_current,17220,CARROLL AVE & MERRIMAC DR,38.991995,-76.992979,2026-05-05,73,3,4.25,18.739,05:38:03,24:22:25,2026-05-09,48.0,16.994
2026_may_current,17221,CARROLL AVE & WILDWOOD DR,38.989673,-76.993533,2026-05-05,73,3,4.25,18.736,05:37:28,24:21:37,2026-05-09,48.0,16.994
2026_may_current,1830,DIAMONDBACK DR & BICKERSTAFF WAY,39.114947,-77.211483,2026-05-05,73,3,5.25,18.833,05:09:36,23:59:36,2026-05-09,44.0,14.917
2026_may_current,2272,FLEET ST & MARYLAND AVE,39.081048,-77.150659,2026-05-05,73,2,5.25,17.596,05:11:44,22:47:28,2026-05-09,52.0,15.339
2026_may_current,8284,GEORGIA AVE & EPPING RD,39.06564,-77.057862,2026-05-05,73,2,5.5,18.0,05:37:30,23:37:30,2026-05-09,59.0,16.917
2026_may_current,8288,GEORGIA AVE & EPPING RD,39.064938,-77.057443,2026-05-05,73,2,5.0,18.0,05:33:53,23:33:53,2026-05-09,59.0,16.917
2026_may_current,8280,GEORGIA AVE & GLENALLAN AVE,39.063337,-77.054886,2026-05-05,73,2,5.5,18.0,05:36:44,23:36:44,2026-05-09,59.0,16.917
2026_may_current,8286,GEORGIA AVE & WELLER RD,39.066138,-77.059017,2026-05-05,73,2,5.0,18.0,05:33:25,23:33:25,2026-05-09,59.0,16.917
2026_may_current,3848,MAPLE AVE & GRANT AVE,38.981635,-77.009271,2026-05-05,73,3,4.5,18.778,05:28:50,24:15:30,2026-05-09,48.0,17.004
2026_may_current,3852,MAPLE AVE & LINCOLN AVE,38.983858,-77.005422,2026-05-05,73,3,4.5,18.775,05:30:14,24:16:44,2026-05-09,48.0,17.007
2026_may_current,3850,MAPLE AVE & SHERMAN AVE,38.982888,-77.007101,2026-05-05,73,3,4.5,18.776,05:29:39,24:16:13,2026-05-09,48.0,17.006
2026_may_current,3854,MAPLE AVE & SLIGO CREEK PKWY,38.985219,-77.003651,2026-05-05,73,3,4.5,18.773,05:31:00,24:17:22,2026-05-09,48.0,17.006
2026_may_current,3892,MARYLAND AVE & GREAT FALLS RD,39.076239,-77.162283,2026-05-05,73,2,5.75,17.617,05:14:00,22:51:00,2026-05-09,52.0,15.35
2026_may_current,3890,MARYLAND AVE & MONUMENT ST,39.077713,-77.158883,2026-05-05,73,2,5.25,17.611,05:13:17,22:49:55,2026-05-09,52.0,15.347
2026_may_current,3888,MARYLAND AVE & NEW MARK ESPLANADE,39.078823,-77.156479,2026-05-05,73,2,5.25,17.606,05:12:49,22:49:11,2026-05-09,52.0,15.344
2026_may_current,3886,MARYLAND AVE & WASHINGTON ST,39.080401,-77.153082,2026-05-05,73,2,5.25,17.6,05:12:10,22:48:09,2026-05-09,52.0,15.341
2026_may_current,4020,MERRIMAC DR & UNIVERSITY BLVD,38.992502,-76.991727,2026-05-05,73,3,4.25,18.737,05:38:24,24:22:38,2026-05-09,48.0,16.989
2026_may_current,30135,OAK LEAF NORTHBOUND &,39.036744,-76.995667,2026-05-05,73,1,4.25,18.893,05:53:54,24:47:28,2026-05-09,76.0,18.78
2026_may_current,30127,OAK LEAF SOUTHBOUND &,39.037714,-76.994797,2026-05-05,73,1,3.5,18.963,05:35:35,24:33:23,2026-05-09,76.0,18.767
2026_may_current,4708,OLD GEORGETOWN RD & TUCKERMAN LN,39.034121,-77.125366,2026-05-05,73,2,5.5,19.027,05:45:00,24:46:37,2026-05-09,35.0,18.71
2026_may_current,5240,REEDIE DR & FERN ST,39.039018,-77.04941,2026-05-05,73,4,5.5,18.05,05:04:50,23:07:50,2026-05-09,43.0,16.017
2026_may_current,5484,ROCK SPRING DR & OLD GEORGETOWN RD,39.026851,-77.127854,2026-05-05,73,3,4.25,19.017,05:47:11,24:48:11,2026-05-09,35.0,18.714
2026_may_current,30136,WHITE OAK NORTHBOUND &,39.040517,-76.98866,2026-05-05,73,1,4.25,18.817,06:00:00,24:49:00,2026-05-09,76.0,18.783
2026_may_current,30134,WHITE OAK SOUTHBOUND &,39.040683,-76.988641,2026-05-05,73,1,3.5,18.967,05:34:00,24:32:00,2026-05-09,76.0,18.767
2026_may_current,3164,GROSVENOR STATION & BAY G,39.028635,-77.103236,2026-05-05,72,3,7.0,15.033,05:40:00,20:42:00,,,
2026_may_current,30243,LIFE SCI - WEST & JOHN HOPKINS UNIVERSITY,39.103112,-77.200207,2026-05-05,72,2,4.75,16.967,05:16:00,22:14:00,2026-05-09,32.0,15.933
2026_may_current,30246,LIFE SCI - WEST & JOHN HOPKINS UNIVERSITY,39.103693,-77.200196,2026-05-05,72,2,4.75,16.917,05:19:00,22:14:00,2026-05-09,32.0,15.833
2026_may_current,15416,WHEATON STATION & BAY J,39.037813,-77.051144,2026-05-05,72,1,4.0,18.483,04:40:00,23:09:00,2026-05-09,48.0,16.017
2026_may_current,9086,BEL PRE RD & CONNECTICUT AVE,39.092026,-77.070702,2026-05-05,71,2,4.75,18.063,05:18:18,23:22:05,2026-05-09,57.0,16.917
2026_may_current,282,BEL PRE RD & DUNSINANE DR,39.093011,-77.073146,2026-05-05,71,2,4.75,18.06,05:17:50,23:21:27,2026-05-09,57.0,16.917
2026_may_current,280,BEL PRE RD & GRAND PRE RD,39.093631,-77.075818,2026-05-05,71,2,4.75,18.058,05:17:22,23:20:50,2026-05-09,57.0,16.917
2026_may_current,3812,MANCHESTER RD & BRADFORD RD,38.998386,-77.006782,2026-05-05,71,1,4.25,20.75,04:28:05,25:13:05,2026-05-09,53.0,20.836
2026_may_current,3830,MANCHESTER RD & BRADFORD RD,38.998285,-77.006852,2026-05-05,71,1,4.5,20.75,04:48:23,25:33:23,2026-05-09,53.0,20.279
2026_may_current,3814,MANCHESTER RD & WAYNE AVE,38.999249,-77.009327,2026-05-05,71,1,4.25,20.75,04:28:45,25:13:45,2026-05-09,53.0,20.837
2026_may_current,3828,MANCHESTER RD & WAYNE AVE,38.999059,-77.009133,2026-05-05,71,1,4.5,20.75,04:47:09,25:32:09,2026-05-09,53.0,20.274
2026_may_current,30273,MEDICAL CENTER DR & BROSCHART BLVD,39.097856,-77.200782,2026-05-05,71,2,5.0,18.466,05:13:13,23:41:10,2026-05-09,48.0,14.734
2026_may_current,5966,SHADY GROVE RD & OAKMONT AVE,39.127002,-77.172936,2026-05-05,71,2,4.25,19.29,04:51:58,24:09:23,2026-05-09,49.0,16.183
2026_may_current,5984,SHADY GROVE RD & OAKMONT AVE,39.127039,-77.173487,2026-05-05,71,2,4.25,19.006,04:58:56,23:59:18,2026-05-09,49.0,16.246
2026_may_current,6682,UNIVERSITY E BLVD & BAYFIELD ST,38.996031,-76.993333,2026-05-05,71,1,4.75,20.75,04:53:33,25:38:33,2026-05-09,53.0,20.292
2026_may_current,6696,UNIVERSITY E BLVD & BAYFIELD ST,38.996534,-76.993201,2026-05-05,71,1,4.5,20.75,04:23:11,25:08:11,2026-05-09,53.0,20.833
2026_may_current,6694,UNIVERSITY E BLVD & CARROLL AVE,38.994993,-76.992738,2026-05-05,71,1,4.25,20.75,04:22:38,25:07:38,2026-05-09,53.0,20.833
2026_may_current,6684,UNIVERSITY E BLVD & FORSTON ST,38.994916,-76.99302,2026-05-05,71,1,4.75,20.75,04:53:57,25:38:57,2026-05-09,53.0,20.293
2026_may_current,6686,UNIVERSITY E BLVD & MERRIMAC DR,38.992831,-76.991822,2026-05-05,71,1,4.75,20.75,04:54:45,25:39:45,2026-05-09,53.0,20.295
2026_may_current,6692,UNIVERSITY E BLVD & NAVAHOE DR,38.993921,-76.992302,2026-05-05,71,1,4.25,20.75,04:22:14,25:07:14,2026-05-09,53.0,20.833
2026_may_current,6678,UNIVERSITY E BLVD & PINEY BRANCH RD,38.998948,-76.995204,2026-05-05,71,1,4.5,20.75,04:52:23,25:37:23,2026-05-09,53.0,20.289
2026_may_current,6680,UNIVERSITY E BLVD & SEEK LN,38.997464,-76.994042,2026-05-05,71,1,4.5,20.75,04:53:00,25:38:00,2026-05-09,53.0,20.291
2026_may_current,6698,UNIVERSITY E BLVD & SEEK LN,38.99771,-76.993839,2026-05-05,71,1,4.5,20.75,04:23:38,25:08:38,2026-05-09,53.0,20.833
2026_may_current,6782,UNIVERSITY W BLVD & PERRY AVE,39.03311,-77.073589,2026-05-05,71,3,5.75,19.083,05:06:14,24:11:14,2026-05-09,29.0,18.167
2026_may_current,1000,CHRISTOPHER AVE & HELLINGLY PL,39.159642,-77.206233,2026-05-05,70,1,4.0,19.692,05:36:48,25:18:20,2026-05-09,59.0,18.876
2026_may_current,998,CHRISTOPHER AVE & MONTGOMERY VILLAGE AVE,39.158592,-77.204633,2026-05-05,70,1,4.25,19.691,05:36:24,25:17:52,2026-05-09,59.0,18.874
2026_may_current,1001,CHRISTOPHER AVE & RUSSELL AVE,39.15805,-77.213218,2026-05-05,70,1,4.0,19.696,05:38:16,25:20:01,2026-05-09,59.0,18.879
2026_may_current,1002,CHRISTOPHER AVE & VILLAGE OVERLOOK,39.159439,-77.210525,2026-05-05,70,1,4.0,19.694,05:37:38,25:19:18,2026-05-09,59.0,18.878
2026_may_current,6590,CONNECTICUT AVE & CONCORD AVE,39.031185,-77.075033,2026-05-05,70,3,5.5,19.385,05:31:42,24:54:49,2026-05-09,29.0,18.917
2026_may_current,2480,FREDERICK RD & @15501,39.109298,-77.159822,2026-05-05,70,1,4.5,19.717,05:14:59,24:57:59,2026-05-09,59.0,18.859
2026_may_current,2540,FREDERICK RD & @20010,39.184123,-77.238959,2026-05-05,70,1,4.25,19.681,05:47:34,25:28:27,2026-05-09,59.0,18.867
2026_may_current,2542,FREDERICK RD & APPLEDOWRE WAY,39.185316,-77.239439,2026-05-05,70,1,4.25,19.68,05:47:55,25:28:43,2026-05-09,59.0,18.867
2026_may_current,2476,FREDERICK RD & COLLEGE PKWY,39.103749,-77.155994,2026-05-05,70,1,4.25,19.717,05:13:36,24:56:36,2026-05-09,59.0,18.856
2026_may_current,2478,FREDERICK RD & GUDE DR,39.107064,-77.158562,2026-05-05,70,1,4.25,19.717,05:14:27,24:57:27,2026-05-09,59.0,18.858
2026_may_current,2538,FREDERICK RD & GUNNERS BRANCH RD,39.178675,-77.23833,2026-05-05,70,1,4.25,19.685,05:46:10,25:27:17,2026-05-09,59.0,18.869
2026_may_current,2544,FREDERICK RD & GUNNERS DR,39.187481,-77.240352,2026-05-05,70,1,4.25,19.678,05:48:33,25:29:13,2026-05-09,59.0,18.867
2026_may_current,2530,FREDERICK RD & HIGH POINT DR,39.169119,-77.234121,2026-05-05,70,1,4.25,19.691,05:43:59,25:25:25,2026-05-09,59.0,18.874
2026_may_current,2482,FREDERICK RD & INDIANOLA DR,39.112731,-77.161936,2026-05-05,70,1,4.5,19.717,05:15:49,24:58:49,2026-05-09,59.0,18.861
2026_may_current,2536,FREDERICK RD & MAGNOLIA DR,39.176568,-77.238251,2026-05-05,70,1,4.25,19.686,05:45:43,25:26:54,2026-05-09,59.0,18.87
2026_may_current,8804,FREDERICK RD & MIDDLEBROOK RD,39.182172,-77.238261,2026-05-05,70,1,4.25,19.683,05:47:00,25:28:00,2026-05-09,59.0,18.867
2026_may_current,2546,FREDERICK RD & OXBRIDGE DR,39.190331,-77.2416,2026-05-05,70,1,4.25,19.675,05:49:24,25:29:53,2026-05-09,59.0,18.867
2026_may_current,2532,FREDERICK RD & PLUMMER DR,39.171531,-77.235727,2026-05-05,70,1,4.25,19.689,05:44:34,25:25:55,2026-05-09,59.0,18.872
2026_may_current,2484,FREDERICK RD & REDLAND RD,39.115372,-77.165467,2026-05-05,70,1,4.5,19.717,05:16:39,24:59:39,2026-05-09,59.0,18.863
2026_may_current,2534,FREDERICK RD & SCENERY DR,39.17533,-77.237872,2026-05-05,70,1,4.25,19.687,05:45:27,25:26:40,2026-05-09,59.0,18.87
2026_may_current,2528,FREDERICK RD & WHEATFIELD DR,39.167797,-77.230028,2026-05-05,70,1,4.25,19.692,05:43:15,25:24:47,2026-05-09,59.0,18.876
2026_may_current,17075,GREAT SENECA HWY & KENTLANDS SQUARE SC,39.126304,-77.234792,2026-05-05,70,2,5.25,17.452,05:41:38,23:08:47,2026-05-09,50.0,14.72
2026_may_current,8012,GREAT SENECA HWY & MAIN ST,39.125797,-77.234772,2026-05-05,70,2,5.0,17.49,04:57:47,22:27:10,2026-05-09,51.0,15.017
2026_may_current,16013,GREAT SENECA HWY & ORCHARD RIDGE DR,39.124241,-77.232013,2026-05-05,70,2,5.0,17.456,05:41:03,23:08:24,2026-05-09,50.0,14.716
2026_may_current,2526,N FREDERICK AVE & PROFESSIONAL DR,39.164202,-77.226682,2026-05-05,70,1,4.25,19.694,05:42:19,25:23:59,2026-05-09,59.0,18.878
2026_may_current,17594,N FREDERICK AVE & TRAVIS AVE,39.161689,-77.223229,2026-05-05,70,1,4.25,19.696,05:41:31,25:23:18,2026-05-09,59.0,18.88
2026_may_current,4792,OMEGA DR & RESEARCH BLVD,39.108695,-77.193269,2026-05-05,70,2,4.5,18.844,05:16:30,24:07:07,2026-05-09,50.0,15.548
2026_may_current,5704,RUSSELL AVE & CHRISTOPHER AVE,39.158378,-77.214207,2026-05-05,70,1,4.0,19.696,05:38:33,25:20:20,2026-05-09,59.0,18.88
2026_may_current,5706,RUSSELL AVE & WATKINS MILL RD,39.159642,-77.215878,2026-05-05,70,1,4.0,19.698,05:39:01,25:20:52,2026-05-09,59.0,18.881
2026_may_current,2502,S FREDERICK AVE & DEER PARK DR,39.133634,-77.189958,2026-05-05,70,1,4.25,19.699,05:24:21,25:06:19,2026-05-09,59.0,18.867
2026_may_current,2500,S FREDERICK AVE & E DEER PARK DR,39.132621,-77.189064,2026-05-05,70,1,4.25,19.7,05:24:00,25:06:00,2026-05-09,59.0,18.867
2026_may_current,2504,S FREDERICK AVE & EDUCATION BLVD,39.135854,-77.191904,2026-05-05,70,1,4.25,19.698,05:25:08,25:07:01,2026-05-09,59.0,18.867
2026_may_current,30217,TECH RD & COLUMBIA PIKE,39.058557,-76.969212,2026-05-05,70,1,4.75,14.183,05:51:00,20:02:00,2026-05-09,36.0,14.2
2026_may_current,6412,TRAVIS AVE & TRAVIS LN,39.16244,-77.2169,2026-05-05,70,1,4.25,19.699,05:40:20,25:22:17,2026-05-09,59.0,18.882
2026_may_current,6414,TRAVIS AVE & TRAVIS VIEW CT,39.162608,-77.220466,2026-05-05,70,1,4.25,19.698,05:40:57,25:22:49,2026-05-09,59.0,18.881
2026_may_current,6410,TRAVIS AVE & WATKINS MILL RD,39.16223,-77.214879,2026-05-05,70,1,4.25,19.7,05:40:00,25:22:00,2026-05-09,59.0,18.883
2026_may_current,6994,WASHINGTONIAN BLVD & @9801,39.113825,-77.196401,2026-05-05,70,2,4.5,18.836,05:14:46,24:04:57,2026-05-09,50.0,15.538
2026_may_current,7812,WASHINGTONIAN BLVD & @9811,39.115037,-77.198293,2026-05-05,70,2,4.5,18.835,05:14:21,24:04:26,2026-05-09,50.0,15.536
2026_may_current,17591,WASHINGTONIAN BLVD & FIELDS RD,39.11226,-77.192704,2026-05-05,70,2,4.5,18.84,05:15:37,24:06:01,2026-05-09,50.0,15.544
2026_may_current,9034,WASHINGTONIAN BLVD & MARATHON TERR,39.113668,-77.193562,2026-05-05,70,2,4.5,18.838,05:15:15,24:05:33,2026-05-09,50.0,15.541
2026_may_current,6992,WASHINGTONIAN BLVD & WATERFRONT PL,39.11635,-77.199479,2026-05-05,70,2,4.5,18.833,05:14:00,24:04:00,2026-05-09,50.0,15.533
2026_may_current,17455,WATKINS MILL RD & TRAVIS LN,39.160252,-77.215058,2026-05-05,70,1,4.25,19.698,05:39:17,25:21:11,2026-05-09,59.0,18.882
2026_may_current,30250,WESTSIDE AT SHADY GROVE & CRABBS BRANCH WAY,39.128851,-77.16779,2026-05-05,70,1,6.0,14.517,05:09:00,19:40:00,2026-05-09,26.0,12.5
2026_may_current,994,CHRISTOPHER AVE & FEATHERTREE WAY,39.159387,-77.206227,2026-05-05,69,1,4.25,19.907,04:36:00,24:30:26,2026-05-09,58.0,19.191
2026_may_current,992,CHRISTOPHER AVE & GALLOP HILL RD,39.159231,-77.21049,2026-05-05,69,1,4.25,19.91,04:34:47,24:29:24,2026-05-09,58.0,19.194
2026_may_current,996,CHRISTOPHER AVE & MONTGOMERY VILLAGE AVE,39.158494,-77.20504,2026-05-05,69,1,4.25,19.906,04:36:26,24:30:48,2026-05-09,58.0,19.189
2026_may_current,991,CHRISTOPHER AVE & RUSSELL AVE,39.158042,-77.212892,2026-05-05,69,1,4.25,19.911,04:34:23,24:29:03,2026-05-09,58.0,19.194
2026_may_current,8072,CLOPPER RD & VILLAGE FOUNTAIN DR,39.161091,-77.279437,2026-05-05,69,3,4.5,19.565,04:51:19,24:25:13,2026-05-09,46.0,16.359
2026_may_current,2664,FREDERICK RD & @15,39.109699,-77.160392,2026-05-05,69,1,4.25,19.876,04:56:29,24:49:01,2026-05-09,58.0,19.192
2026_may_current,2610,FREDERICK RD & @20010,39.184007,-77.239218,2026-05-05,69,1,4.0,19.933,04:25:10,24:21:10,2026-05-09,58.0,19.183
2026_may_current,2608,FREDERICK RD & APPLEDOWRE WAY,39.185157,-77.23968,2026-05-05,69,1,4.0,19.933,04:24:57,24:20:57,2026-05-09,58.0,19.183
2026_may_current,2614,FREDERICK RD & ARCHDALE RD,39.177346,-77.238717,2026-05-05,69,1,4.25,19.932,04:26:32,24:22:26,2026-05-09,58.0,19.185
2026_may_current,2668,FREDERICK RD & COLLEGE PKWY,39.10355,-77.15621,2026-05-05,69,1,4.25,19.872,04:58:02,24:50:22,2026-05-09,58.0,19.189
2026_may_current,8856,FREDERICK RD & COLLINS DR,39.193657,-77.243489,2026-05-05,69,1,4.25,19.933,04:23:13,24:19:13,2026-05-09,58.0,19.183
2026_may_current,2602,FREDERICK RD & GERMANTOWN RD,39.191683,-77.242713,2026-05-05,69,1,4.0,19.933,04:23:37,24:19:37,2026-05-09,58.0,19.183
2026_may_current,2616,FREDERICK RD & GUNNERS BRANCH RD,39.175613,-77.23838,2026-05-05,69,1,4.25,19.931,04:26:51,24:22:42,2026-05-09,58.0,19.186
2026_may_current,17406,FREDERICK RD & GUNNERS BRANCH RD,39.178609,-77.238689,2026-05-05,69,1,4.25,19.932,04:26:18,24:22:15,2026-05-09,58.0,19.184
2026_may_current,2606,FREDERICK RD & GUNNERS DR,39.187555,-77.240714,2026-05-05,69,1,4.0,19.933,04:24:28,24:20:28,2026-05-09,58.0,19.183
2026_may_current,2620,FREDERICK RD & HIGH POINT DR,39.168916,-77.234368,2026-05-05,69,1,4.25,19.927,04:28:14,24:23:50,2026-05-09,58.0,19.189
2026_may_current,2612,FREDERICK RD & MIDDLEBROOK RD,39.180307,-77.238629,2026-05-05,69,1,4.25,19.933,04:26:00,24:22:00,2026-05-09,58.0,19.183
2026_may_current,2604,FREDERICK RD & OXBRIDGE DR,39.189636,-77.241611,2026-05-05,69,1,4.0,19.933,04:24:03,24:20:03,2026-05-09,58.0,19.183
2026_may_current,2618,FREDERICK RD & PLUMMER DR,39.171914,-77.236337,2026-05-05,69,1,4.25,19.929,04:27:36,24:23:19,2026-05-09,58.0,19.188
2026_may_current,2660,FREDERICK RD & REDLAND RD,39.115144,-77.165731,2026-05-05,69,1,4.25,19.879,04:54:55,24:47:40,2026-05-09,58.0,19.196
2026_may_current,9056,FREDERICK RD & SHAKESPEARE BLVD,39.19759,-77.244955,2026-05-05,69,1,4.5,19.933,04:22:25,24:18:25,2026-05-09,58.0,19.183
2026_may_current,2666,FREDERICK RD & W GUDE DR,39.106242,-77.15843,2026-05-05,69,1,4.25,19.874,04:57:19,24:49:45,2026-05-09,58.0,19.191
2026_may_current,2662,FREDERICK RD & WATKINS POND BLVD,39.111891,-77.161755,2026-05-05,69,1,4.25,19.877,04:55:56,24:48:33,2026-05-09,58.0,19.194
2026_may_current,2622,FREDERICK RD & WHEATFIELD DR,39.167983,-77.231144,2026-05-05,69,1,4.25,19.925,04:28:44,24:24:15,2026-05-09,58.0,19.191
2026_may_current,8258,GERMANTOWN RD & OBSERVATION DR,39.190285,-77.248519,2026-05-05,69,1,4.25,19.929,04:17:17,24:13:03,2026-05-09,58.0,19.167
2026_may_current,4240,MONTGOMERY VILLAGE AVE & APPLE RIDGE RD,39.187026,-77.198374,2026-05-05,69,2,4.75,17.419,05:53:19,23:18:26,2026-05-09,48.0,15.568
2026_may_current,2624,N FREDERICK AVE & PROFESSIONAL DR,39.163201,-77.226226,2026-05-05,69,1,4.25,19.922,04:29:54,24:25:13,2026-05-09,58.0,19.194
2026_may_current,17399,OBSERVATION DR & @20457 (SENECA MEADOWS CORP CTR),39.196312,-77.254903,2026-05-05,69,1,4.25,19.933,04:20:36,24:16:36,2026-05-09,58.0,19.177
2026_may_current,8854,OBSERVATION DR & BOLAND FARM RD,39.193668,-77.248636,2026-05-05,69,1,4.25,19.933,04:19:27,24:15:27,2026-05-09,58.0,19.172
2026_may_current,8852,OBSERVATION DR & OBSERVATION CT,39.192061,-77.24809,2026-05-05,69,1,4.25,19.933,04:19:09,24:15:09,2026-05-09,58.0,19.171
2026_may_current,8850,OBSERVATION DR & PANTHER RIDGE DR,39.194449,-77.25007,2026-05-05,69,1,4.25,19.933,04:19:41,24:15:41,2026-05-09,58.0,19.174
2026_may_current,5710,RUSSELL AVE & CHRISTOPHER AVE,39.158497,-77.214856,2026-05-05,69,1,4.25,19.914,04:33:25,24:28:14,2026-05-09,58.0,19.197
2026_may_current,5708,RUSSELL AVE & WATKINS MILL RD,39.159721,-77.216175,2026-05-05,69,1,4.25,19.915,04:32:53,24:27:46,2026-05-09,58.0,19.198
2026_may_current,2642,S FREDERICK AVE & CEDAR AVE,39.139545,-77.196375,2026-05-05,69,1,4.25,19.888,04:43:48,24:37:06,2026-05-09,58.0,19.195
2026_may_current,2646,S FREDERICK AVE & EDUCATION BLVD,39.135556,-77.192121,2026-05-05,69,1,4.25,19.885,04:45:00,24:38:07,2026-05-09,58.0,19.198
2026_may_current,2648,S FREDERICK AVE & W DEER PARK RD,39.132285,-77.18918,2026-05-05,69,1,4.25,19.883,04:46:00,24:39:00,2026-05-09,58.0,19.2
2026_may_current,6406,TRAVIS AVE & TRAVIS LN,39.162486,-77.217461,2026-05-05,69,1,4.5,19.918,04:31:25,24:26:28,2026-05-09,58.0,19.198
2026_may_current,6404,TRAVIS AVE & TRAVIS VIEW CT,39.162556,-77.220183,2026-05-05,69,1,4.25,19.919,04:30:59,24:26:07,2026-05-09,58.0,19.197
2026_may_current,7056,WATKINS MILL RD & TRAVIS AVE,39.161739,-77.214476,2026-05-05,69,1,4.5,19.917,04:32:00,24:27:00,2026-05-09,58.0,19.2
2026_may_current,17454,WATKINS MILL RD & TRAVIS LN,39.160389,-77.215249,2026-05-05,69,1,4.5,19.916,04:32:31,24:27:27,2026-05-09,58.0,19.199
2026_may_current,634,LYTTONVILLE OPERATIONS CNTR. &,38.998525,-77.057,2026-05-05,68,1,3.75,18.55,04:35:00,23:08:00,2026-05-09,52.0,15.133
2026_may_current,17624,MONTGOMERY MALL TRANSIT CENTER & BAY E,39.025892,-77.142529,2026-05-05,68,1,4.75,17.7,05:31:00,23:13:00,2026-05-09,52.0,15.0
2026_may_current,4230,MONTGOMERY VILLAGE AVE & ARROWHEAD RD,39.187703,-77.197373,2026-05-05,68,2,4.25,17.283,04:57:00,22:14:00,2026-05-09,49.0,15.0
2026_may_current,4790,OMEGA DR & RESEARCH BLVD,39.108608,-77.193069,2026-05-05,68,2,4.25,18.617,05:20:50,23:57:50,2026-05-09,51.0,15.491
2026_may_current,5570,ROCKVILLE PIKE & FIRST ST,39.077853,-77.140253,2026-05-05,68,2,4.75,19.733,06:01:21,25:45:21,2026-05-09,41.0,18.833
2026_may_current,5572,ROCKVILLE PIKE & MT VERNON PL,39.078862,-77.141703,2026-05-05,68,2,4.75,19.733,06:01:48,25:45:48,2026-05-09,41.0,18.833
2026_may_current,5578,ROCKVILLE PIKE & MT VERNON PL,39.078611,-77.141794,2026-05-05,68,2,5.0,19.65,05:07:51,24:46:51,2026-05-09,41.0,18.826
2026_may_current,5574,ROCKVILLE PIKE & NEW ST,39.079909,-77.143185,2026-05-05,68,2,4.5,19.733,06:02:15,25:46:15,2026-05-09,41.0,18.833
2026_may_current,5576,ROCKVILLE PIKE & RICHARD MONTGOMERY DR,39.080431,-77.144385,2026-05-05,68,2,5.0,19.65,05:07:04,24:46:04,2026-05-09,41.0,18.824
2026_may_current,17607,SILVER SPRING STATION & BAY 107,38.993652,-77.030161,2026-05-05,68,1,4.25,18.25,04:45:00,23:00:00,2026-05-09,52.0,14.833
2026_may_current,6988,WASHINGTONIAN BLVD & @9801,39.114063,-77.196438,2026-05-05,68,2,4.25,18.617,05:23:00,24:00:00,2026-05-09,51.0,15.5
2026_may_current,9032,WASHINGTONIAN BLVD & MARATHON TERR,39.113724,-77.193068,2026-05-05,68,2,4.25,18.617,05:22:18,23:59:18,2026-05-09,51.0,15.498
2026_may_current,17590,WASHINGTONIAN BLVD & OMEGA DR,39.112453,-77.192376,2026-05-05,68,2,4.25,18.617,05:21:58,23:58:58,2026-05-09,51.0,15.496
2026_may_current,7662,WOOTTON PKWY & KEYNES LN,39.088979,-77.193086,2026-05-05,68,2,5.75,16.707,05:20:09,22:02:35,2026-05-09,45.0,14.274
